%time,field.header.seq,field.header.stamp,field.header.frame_id,field.status.status,field.status.service,field.latitude,field.longitude,field.altitude,field.position_covariance0,field.position_covariance1,field.position_covariance2,field.position_covariance3,field.position_covariance4,field.position_covariance5,field.position_covariance6,field.position_covariance7,field.position_covariance8,field.position_covariance_type
1718246973197870554,3849,1718246973197799008,navsat_link,0,0,39.9253147629,116.199941381,65.752204895,0.0,0.0,0.0,0.0,0.0,0.0,0.0,0.0,0.0,0
1718246973247979072,3850,1718246973247854012,navsat_link,0,0,39.9253148052,116.199941311,65.751701355,0.0,0.0,0.0,0.0,0.0,0.0,0.0,0.0,0.0,0
1718246973298321634,3851,1718246973297965019,navsat_link,0,0,39.9253147717,116.199941392,65.7502059937,0.0,0.0,0.0,0.0,0.0,0.0,0.0,0.0,0.0,0
1718246973348241755,3852,1718246973347919944,navsat_link,0,0,39.9253148241,116.199941325,65.7499389648,0.0,0.0,0.0,0.0,0.0,0.0,0.0,0.0,0.0,0
1718246973398190856,3853,1718246973397829960,navsat_link,0,0,39.9253147822,116.199941403,65.7483978271,0.0,0.0,0.0,0.0,0.0,0.0,0.0,0.0,0.0,0
1718246973448252135,3854,1718246973447877215,navsat_link,0,0,39.9253148478,116.199941355,65.7482147217,0.0,0.0,0.0,0.0,0.0,0.0,0.0,0.0,0.0,0
1718246973497897835,3855,1718246973497820011,navsat_link,0,0,39.9253147862,116.199941405,65.7467651367,0.0,0.0,0.0,0.0,0.0,0.0,0.0,0.0,0.0,0
1718246973548172899,3856,1718246973547873012,navsat_link,0,0,39.9253148448,116.199941356,65.7465591431,0.0,0.0,0.0,0.0,0.0,0.0,0.0,0.0,0.0,0
1718246973597896706,3857,1718246973597821019,navsat_link,0,0,39.9253147795,116.199941399,65.7465820312,0.0,0.0,0.0,0.0,0.0,0.0,0.0,0.0,0.0,0
1718246973647985624,3858,1718246973647830123,navsat_link,0,0,39.9253148327,116.199941357,65.7447357178,0.0,0.0,0.0,0.0,0.0,0.0,0.0,0.0,0.0,0
1718246973698296224,3859,1718246973697855448,navsat_link,0,0,39.9253147844,116.199941413,65.7434921265,0.0,0.0,0.0,0.0,0.0,0.0,0.0,0.0,0.0,0
1718246973748029139,3860,1718246973747834417,navsat_link,0,0,39.9253148335,116.199941349,65.7430648804,0.0,0.0,0.0,0.0,0.0,0.0,0.0,0.0,0.0,0
1718246973797992393,3861,1718246973797912884,navsat_link,0,0,39.9253147868,116.199941419,65.7418518066,0.0,0.0,0.0,0.0,0.0,0.0,0.0,0.0,0.0,0
1718246973848014775,3862,1718246973847857130,navsat_link,0,0,39.9253148423,116.199941356,65.741645813,0.0,0.0,0.0,0.0,0.0,0.0,0.0,0.0,0.0,0
1718246973898201691,3863,1718246973897858981,navsat_link,0,0,39.9253147881,116.199941426,65.7404174805,0.0,0.0,0.0,0.0,0.0,0.0,0.0,0.0,0.0,0
1718246973948118110,3864,1718246973947880315,navsat_link,0,0,39.9253148472,116.199941376,65.7401733398,0.0,0.0,0.0,0.0,0.0,0.0,0.0,0.0,0.0,0
1718246973997939002,3865,1718246973997843976,navsat_link,0,0,39.9253147912,116.199941431,65.7390365601,0.0,0.0,0.0,0.0,0.0,0.0,0.0,0.0,0.0,0
1718246974048122311,3866,1718246974047904933,navsat_link,0,0,39.925314849,116.199941381,65.7387313843,0.0,0.0,0.0,0.0,0.0,0.0,0.0,0.0,0.0,0
1718246974098079372,3867,1718246974097794693,navsat_link,0,0,39.9253147985,116.199941433,65.7378234863,0.0,0.0,0.0,0.0,0.0,0.0,0.0,0.0,0.0,0
1718246974148249762,3868,1718246974147853791,navsat_link,0,0,39.9253148553,116.199941376,65.7375793457,0.0,0.0,0.0,0.0,0.0,0.0,0.0,0.0,0.0,0
1718246974198089187,3869,1718246974197830819,navsat_link,0,0,39.9253147969,116.199941443,65.7365646362,0.0,0.0,0.0,0.0,0.0,0.0,0.0,0.0,0.0,0
1718246974247869982,3870,1718246974247773244,navsat_link,0,0,39.9253148504,116.199941383,65.7362136841,0.0,0.0,0.0,0.0,0.0,0.0,0.0,0.0,0.0,0
1718246974298182246,3871,1718246974297814128,navsat_link,0,0,39.9253147987,116.199941453,65.7351837158,0.0,0.0,0.0,0.0,0.0,0.0,0.0,0.0,0.0,0
1718246974348153944,3872,1718246974347841159,navsat_link,0,0,39.925314854,116.199941395,65.7348175049,0.0,0.0,0.0,0.0,0.0,0.0,0.0,0.0,0.0,0
1718246974398261630,3873,1718246974397846079,navsat_link,0,0,39.9253148088,116.199941463,65.733757019,0.0,0.0,0.0,0.0,0.0,0.0,0.0,0.0,0.0,0
1718246974448098260,3874,1718246974447858455,navsat_link,0,0,39.9253148691,116.199941409,65.7335357666,0.0,0.0,0.0,0.0,0.0,0.0,0.0,0.0,0.0,0
1718246974497975691,3875,1718246974497828628,navsat_link,0,0,39.9253148154,116.199941458,65.733581543,0.0,0.0,0.0,0.0,0.0,0.0,0.0,0.0,0.0,0
1718246974548003131,3876,1718246974547884263,navsat_link,0,0,39.9253148772,116.199941419,65.7320175171,0.0,0.0,0.0,0.0,0.0,0.0,0.0,0.0,0.0,0
1718246974597910005,3877,1718246974597790034,navsat_link,0,0,39.9253148231,116.19994146,65.7321395874,0.0,0.0,0.0,0.0,0.0,0.0,0.0,0.0,0.0,0
1718246974647920886,3878,1718246974647825031,navsat_link,0,0,39.9253148837,116.199941422,65.7304916382,0.0,0.0,0.0,0.0,0.0,0.0,0.0,0.0,0.0,0
1718246974697879148,3879,1718246974697805949,navsat_link,0,0,39.925314835,116.199941474,65.7296295166,0.0,0.0,0.0,0.0,0.0,0.0,0.0,0.0,0.0,0
1718246974748041657,3880,1718246974747897472,navsat_link,0,0,39.9253148961,116.199941423,65.7294235229,0.0,0.0,0.0,0.0,0.0,0.0,0.0,0.0,0.0,0
1718246974797972976,3881,1718246974797843267,navsat_link,0,0,39.9253148436,116.199941478,65.7286224365,0.0,0.0,0.0,0.0,0.0,0.0,0.0,0.0,0.0,0
1718246974848105920,3882,1718246974847908083,navsat_link,0,0,39.9253149078,116.199941427,65.7284317017,0.0,0.0,0.0,0.0,0.0,0.0,0.0,0.0,0.0,0
1718246974897939002,3883,1718246974897772168,navsat_link,0,0,39.9253148505,116.199941486,65.7274246216,0.0,0.0,0.0,0.0,0.0,0.0,0.0,0.0,0.0,0
1718246974948081802,3884,1718246974947938121,navsat_link,0,0,39.9253149121,116.199941436,65.7271652222,0.0,0.0,0.0,0.0,0.0,0.0,0.0,0.0,0.0,0
1718246974998188317,3885,1718246974997874249,navsat_link,0,0,39.9253148594,116.199941492,65.7259216309,0.0,0.0,0.0,0.0,0.0,0.0,0.0,0.0,0.0,0
1718246975048387042,3886,1718246975047967971,navsat_link,0,0,39.9253149209,116.199941443,65.7257080078,0.0,0.0,0.0,0.0,0.0,0.0,0.0,0.0,0.0,0
1718246975098266118,3887,1718246975097826592,navsat_link,0,0,39.9253148721,116.199941493,65.7245178223,0.0,0.0,0.0,0.0,0.0,0.0,0.0,0.0,0.0,0
1718246975148041930,3888,1718246975147935875,navsat_link,0,0,39.9253149363,116.199941444,65.724319458,0.0,0.0,0.0,0.0,0.0,0.0,0.0,0.0,0.0,0
1718246975197907686,3889,1718246975197816465,navsat_link,0,0,39.9253148841,116.199941491,65.7232971191,0.0,0.0,0.0,0.0,0.0,0.0,0.0,0.0,0.0,0
1718246975247967738,3890,1718246975247809003,navsat_link,0,0,39.9253149498,116.199941442,65.7232284546,0.0,0.0,0.0,0.0,0.0,0.0,0.0,0.0,0.0,0
1718246975298013725,3891,1718246975297836536,navsat_link,0,0,39.9253148884,116.199941487,65.7220153809,0.0,0.0,0.0,0.0,0.0,0.0,0.0,0.0,0.0,0
1718246975348048152,3892,1718246975347884743,navsat_link,0,0,39.9253149522,116.199941439,65.7218093872,0.0,0.0,0.0,0.0,0.0,0.0,0.0,0.0,0.0,0
1718246975398035467,3893,1718246975397929682,navsat_link,0,0,39.925314899,116.199941487,65.7207717896,0.0,0.0,0.0,0.0,0.0,0.0,0.0,0.0,0.0,0
1718246975448059533,3894,1718246975447849579,navsat_link,0,0,39.9253149629,116.199941439,65.7205657959,0.0,0.0,0.0,0.0,0.0,0.0,0.0,0.0,0.0,0
1718246975497909976,3895,1718246975497841236,navsat_link,0,0,39.9253149088,116.199941486,65.7196426392,0.0,0.0,0.0,0.0,0.0,0.0,0.0,0.0,0.0,0
1718246975548030304,3896,1718246975547901461,navsat_link,0,0,39.9253149769,116.199941433,65.7193908691,0.0,0.0,0.0,0.0,0.0,0.0,0.0,0.0,0.0,0
1718246975597988986,3897,1718246975597788782,navsat_link,0,0,39.9253149159,116.199941474,65.7197723389,0.0,0.0,0.0,0.0,0.0,0.0,0.0,0.0,0.0,0
1718246975648014585,3898,1718246975647896327,navsat_link,0,0,39.9253149807,116.199941436,65.718460083,0.0,0.0,0.0,0.0,0.0,0.0,0.0,0.0,0.0,0
1718246975698418128,3899,1718246975697968740,navsat_link,0,0,39.9253149247,116.199941485,65.7175216675,0.0,0.0,0.0,0.0,0.0,0.0,0.0,0.0,0.0,0
1718246975748193170,3900,1718246975747869478,navsat_link,0,0,39.9253149825,116.199941439,65.7173156738,0.0,0.0,0.0,0.0,0.0,0.0,0.0,0.0,0.0,0
1718246975797889141,3901,1718246975797775824,navsat_link,0,0,39.9253149231,116.19994148,65.7177810669,0.0,0.0,0.0,0.0,0.0,0.0,0.0,0.0,0.0,0
1718246975848106585,3902,1718246975847914363,navsat_link,0,0,39.925314991,116.199941441,65.7162704468,0.0,0.0,0.0,0.0,0.0,0.0,0.0,0.0,0.0,0
1718246975898192437,3903,1718246975897881122,navsat_link,0,0,39.9253149413,116.199941497,65.7152862549,0.0,0.0,0.0,0.0,0.0,0.0,0.0,0.0,0.0,0
1718246975948372948,3904,1718246975948016418,navsat_link,0,0,39.9253150033,116.199941438,65.7150497437,0.0,0.0,0.0,0.0,0.0,0.0,0.0,0.0,0.0,0
1718246975998202978,3905,1718246975997802967,navsat_link,0,0,39.9253149503,116.19994148,65.7154464722,0.0,0.0,0.0,0.0,0.0,0.0,0.0,0.0,0.0,0
1718246976048198178,3906,1718246976047878404,navsat_link,0,0,39.9253150101,116.199941436,65.714012146,0.0,0.0,0.0,0.0,0.0,0.0,0.0,0.0,0.0,0
1718246976098733171,3907,1718246976098340875,navsat_link,0,0,39.9253149597,116.199941492,65.7132568359,0.0,0.0,0.0,0.0,0.0,0.0,0.0,0.0,0.0,0
1718246976148054260,3908,1718246976147782567,navsat_link,0,0,39.9253150211,116.199941441,65.7129898071,0.0,0.0,0.0,0.0,0.0,0.0,0.0,0.0,0.0,0
1718246976198074127,3909,1718246976197838953,navsat_link,0,0,39.9253149656,116.199941488,65.7122268677,0.0,0.0,0.0,0.0,0.0,0.0,0.0,0.0,0.0,0
1718246976248105735,3910,1718246976247904306,navsat_link,0,0,39.9253150302,116.199941431,65.711807251,0.0,0.0,0.0,0.0,0.0,0.0,0.0,0.0,0.0,0
1718246976298118657,3911,1718246976297815364,navsat_link,0,0,39.9253149775,116.199941493,65.711151123,0.0,0.0,0.0,0.0,0.0,0.0,0.0,0.0,0.0,0
1718246976348177325,3912,1718246976347939026,navsat_link,0,0,39.9253150331,116.199941432,65.7109222412,0.0,0.0,0.0,0.0,0.0,0.0,0.0,0.0,0.0,0
1718246976397994775,3913,1718246976397825168,navsat_link,0,0,39.9253149841,116.199941489,65.7102203369,0.0,0.0,0.0,0.0,0.0,0.0,0.0,0.0,0.0,0
1718246976448050200,3914,1718246976447869459,navsat_link,0,0,39.9253150373,116.199941427,65.710067749,0.0,0.0,0.0,0.0,0.0,0.0,0.0,0.0,0.0,0
1718246976498311983,3915,1718246976497824207,navsat_link,0,0,39.9253149933,116.199941488,65.7090911865,0.0,0.0,0.0,0.0,0.0,0.0,0.0,0.0,0.0,0
1718246976548231301,3916,1718246976547948452,navsat_link,0,0,39.9253150588,116.199941434,65.7086868286,0.0,0.0,0.0,0.0,0.0,0.0,0.0,0.0,0.0,0
1718246976598219218,3917,1718246976597816260,navsat_link,0,0,39.9253150156,116.199941481,65.7088546753,0.0,0.0,0.0,0.0,0.0,0.0,0.0,0.0,0.0,0
1718246976648384018,3918,1718246976647911298,navsat_link,0,0,39.9253150824,116.19994143,65.7074203491,0.0,0.0,0.0,0.0,0.0,0.0,0.0,0.0,0.0,0
1718246976698105236,3919,1718246976697831142,navsat_link,0,0,39.9253150533,116.199941498,65.7060317993,0.0,0.0,0.0,0.0,0.0,0.0,0.0,0.0,0.0,0
1718246976748302666,3920,1718246976747850087,navsat_link,0,0,39.9253151039,116.199941418,65.7059783936,0.0,0.0,0.0,0.0,0.0,0.0,0.0,0.0,0.0,0
1718246976798010874,3921,1718246976797805449,navsat_link,0,0,39.9253150682,116.199941494,65.7050018311,0.0,0.0,0.0,0.0,0.0,0.0,0.0,0.0,0.0,0
1718246976848050643,3922,1718246976847848816,navsat_link,0,0,39.9253151182,116.199941395,65.7049636841,0.0,0.0,0.0,0.0,0.0,0.0,0.0,0.0,0.0,0
1718246976898023145,3923,1718246976897865970,navsat_link,0,0,39.9253150887,116.19994148,65.7039260864,0.0,0.0,0.0,0.0,0.0,0.0,0.0,0.0,0.0,0
1718246976948057816,3924,1718246976947842779,navsat_link,0,0,39.9253151358,116.199941339,65.7037277222,0.0,0.0,0.0,0.0,0.0,0.0,0.0,0.0,0.0,0
1718246976998020704,3925,1718246976997895724,navsat_link,0,0,39.9253151449,116.199941434,65.7033538818,0.0,0.0,0.0,0.0,0.0,0.0,0.0,0.0,0.0,0
1718246977047923067,3926,1718246977047827083,navsat_link,0,0,39.9253151814,116.199941232,65.703338623,0.0,0.0,0.0,0.0,0.0,0.0,0.0,0.0,0.0,0
1718246977098182985,3927,1718246977097864159,navsat_link,0,0,39.925315338,116.199941366,65.7019424438,0.0,0.0,0.0,0.0,0.0,0.0,0.0,0.0,0.0,0
1718246977148173585,3928,1718246977147892368,navsat_link,0,0,39.9253153761,116.199941137,65.7018966675,0.0,0.0,0.0,0.0,0.0,0.0,0.0,0.0,0.0,0
1718246977198130694,3929,1718246977197859578,navsat_link,0,0,39.9253156009,116.199941256,65.7011260986,0.0,0.0,0.0,0.0,0.0,0.0,0.0,0.0,0.0,0
1718246977248146533,3930,1718246977247857773,navsat_link,0,0,39.9253156382,116.199940997,65.7006378174,0.0,0.0,0.0,0.0,0.0,0.0,0.0,0.0,0.0,0
1718246977298174649,3931,1718246977297843710,navsat_link,0,0,39.9253158789,116.199941109,65.7036209106,0.0,0.0,0.0,0.0,0.0,0.0,0.0,0.0,0.0,0
1718246977348323654,3932,1718246977347921316,navsat_link,0,0,39.9253159199,116.199940822,65.7039642334,0.0,0.0,0.0,0.0,0.0,0.0,0.0,0.0,0.0,0
1718246977398443877,3933,1718246977397846545,navsat_link,0,0,39.925316175,116.199940955,65.7069625854,0.0,0.0,0.0,0.0,0.0,0.0,0.0,0.0,0.0,0
1718246977447995567,3934,1718246977447795899,navsat_link,0,0,39.9253162247,116.19994065,65.7070846558,0.0,0.0,0.0,0.0,0.0,0.0,0.0,0.0,0.0,0
1718246977497907163,3935,1718246977497807750,navsat_link,0,0,39.9253165669,116.199940803,65.7088165283,0.0,0.0,0.0,0.0,0.0,0.0,0.0,0.0,0.0,0
1718246977548170101,3936,1718246977547912599,navsat_link,0,0,39.9253166292,116.199940475,65.7091064453,0.0,0.0,0.0,0.0,0.0,0.0,0.0,0.0,0.0,0
1718246977597969736,3937,1718246977597823993,navsat_link,0,0,39.9253170141,116.199940628,65.7109298706,0.0,0.0,0.0,0.0,0.0,0.0,0.0,0.0,0.0,0
1718246977647984798,3938,1718246977647852853,navsat_link,0,0,39.9253170874,116.199940308,65.7101745605,0.0,0.0,0.0,0.0,0.0,0.0,0.0,0.0,0.0,0
1718246977697924869,3939,1718246977697789667,navsat_link,0,0,39.925317596,116.19994057,65.7091751099,0.0,0.0,0.0,0.0,0.0,0.0,0.0,0.0,0.0,0
1718246977748051128,3940,1718246977747900074,navsat_link,0,0,39.9253176791,116.199940214,65.7103042603,0.0,0.0,0.0,0.0,0.0,0.0,0.0,0.0,0.0,0
1718246977797962802,3941,1718246977797873675,navsat_link,0,0,39.9253180757,116.199940355,65.706741333,0.0,0.0,0.0,0.0,0.0,0.0,0.0,0.0,0.0,0
1718246977848193721,3942,1718246977847890980,navsat_link,0,0,39.9253181519,116.19994,65.7069778442,0.0,0.0,0.0,0.0,0.0,0.0,0.0,0.0,0.0,0
1718246977898092658,3943,1718246977897796137,navsat_link,0,0,39.9253186736,116.199940193,65.7053756714,0.0,0.0,0.0,0.0,0.0,0.0,0.0,0.0,0.0,0
1718246977948038934,3944,1718246977947863989,navsat_link,0,0,39.9253187553,116.199939827,65.7047805786,0.0,0.0,0.0,0.0,0.0,0.0,0.0,0.0,0.0,0
1718246977997853060,3945,1718246977997740086,navsat_link,0,0,39.9253192935,116.199940054,65.7063980103,0.0,0.0,0.0,0.0,0.0,0.0,0.0,0.0,0.0,0
1718246978047992036,3946,1718246978047809627,navsat_link,0,0,39.9253193863,116.199939685,65.7064285278,0.0,0.0,0.0,0.0,0.0,0.0,0.0,0.0,0.0,0
1718246978098078724,3947,1718246978097832797,navsat_link,0,0,39.9253198867,116.199939828,65.706451416,0.0,0.0,0.0,0.0,0.0,0.0,0.0,0.0,0.0,0
1718246978148143110,3948,1718246978147850097,navsat_link,0,0,39.9253200008,116.199939447,65.7072219849,0.0,0.0,0.0,0.0,0.0,0.0,0.0,0.0,0.0,0
1718246978198109819,3949,1718246978197872502,navsat_link,0,0,39.9253205317,116.199939658,65.7057113647,0.0,0.0,0.0,0.0,0.0,0.0,0.0,0.0,0.0,0
1718246978247985881,3950,1718246978247882787,navsat_link,0,0,39.9253206401,116.199939255,65.7061843872,0.0,0.0,0.0,0.0,0.0,0.0,0.0,0.0,0.0,0
1718246978298503337,3951,1718246978297847600,navsat_link,0,0,39.9253211981,116.199939542,65.7084579468,0.0,0.0,0.0,0.0,0.0,0.0,0.0,0.0,0.0,0
1718246978348130796,3952,1718246978347853375,navsat_link,0,0,39.9253213112,116.199939151,65.7082061768,0.0,0.0,0.0,0.0,0.0,0.0,0.0,0.0,0.0,0
1718246978398098423,3953,1718246978397839909,navsat_link,0,0,39.9253219844,116.1999395,65.7063446045,0.0,0.0,0.0,0.0,0.0,0.0,0.0,0.0,0.0,0
1718246978448047762,3954,1718246978447905565,navsat_link,0,0,39.9253221292,116.199939091,65.706817627,0.0,0.0,0.0,0.0,0.0,0.0,0.0,0.0,0.0,0
1718246978498013713,3955,1718246978497835121,navsat_link,0,0,39.9253227423,116.199939477,65.7075805664,0.0,0.0,0.0,0.0,0.0,0.0,0.0,0.0,0.0,0
1718246978548199683,3956,1718246978547890466,navsat_link,0,0,39.9253228975,116.199939072,65.7089004517,0.0,0.0,0.0,0.0,0.0,0.0,0.0,0.0,0.0,0
1718246978598429851,3957,1718246978597861063,navsat_link,0,0,39.9253235007,116.199939452,65.7035751343,0.0,0.0,0.0,0.0,0.0,0.0,0.0,0.0,0.0,0
1718246978647929801,3958,1718246978647818251,navsat_link,0,0,39.9253236939,116.199939109,65.703918457,0.0,0.0,0.0,0.0,0.0,0.0,0.0,0.0,0.0,0
1718246978698015617,3959,1718246978697885030,navsat_link,0,0,39.9253243167,116.199939459,65.6937713623,0.0,0.0,0.0,0.0,0.0,0.0,0.0,0.0,0.0,0
1718246978747933063,3960,1718246978747801521,navsat_link,0,0,39.9253245206,116.199939093,65.6943206787,0.0,0.0,0.0,0.0,0.0,0.0,0.0,0.0,0.0,0
1718246978797935640,3961,1718246978797800427,navsat_link,0,0,39.9253251513,116.199939404,65.6905670166,0.0,0.0,0.0,0.0,0.0,0.0,0.0,0.0,0.0,0
1718246978848117771,3962,1718246978847925253,navsat_link,0,0,39.9253253808,116.199939035,65.6911773682,0.0,0.0,0.0,0.0,0.0,0.0,0.0,0.0,0.0,0
1718246978898277485,3963,1718246978897863867,navsat_link,0,0,39.9253259237,116.199939215,65.6884918213,0.0,0.0,0.0,0.0,0.0,0.0,0.0,0.0,0.0,0
1718246978948331123,3964,1718246978947907530,navsat_link,0,0,39.92532616,116.199938861,65.6884841919,0.0,0.0,0.0,0.0,0.0,0.0,0.0,0.0,0.0,0
1718246978998347711,3965,1718246978997884489,navsat_link,0,0,39.9253268134,116.199939137,65.6863632202,0.0,0.0,0.0,0.0,0.0,0.0,0.0,0.0,0.0,0
1718246979048318579,3966,1718246979047865962,navsat_link,0,0,39.9253270681,116.19993877,65.6864852905,0.0,0.0,0.0,0.0,0.0,0.0,0.0,0.0,0.0,0
1718246979098243716,3967,1718246979097845462,navsat_link,0,0,39.9253276558,116.199939018,65.6823272705,0.0,0.0,0.0,0.0,0.0,0.0,0.0,0.0,0.0,0
1718246979148175635,3968,1718246979147891105,navsat_link,0,0,39.9253279152,116.199938678,65.6825180054,0.0,0.0,0.0,0.0,0.0,0.0,0.0,0.0,0.0,0
1718246979198206890,3969,1718246979197834332,navsat_link,0,0,39.9253285405,116.19993887,65.6869659424,0.0,0.0,0.0,0.0,0.0,0.0,0.0,0.0,0.0,0
1718246979248020478,3970,1718246979247814733,navsat_link,0,0,39.9253288134,116.19993855,65.6874313354,0.0,0.0,0.0,0.0,0.0,0.0,0.0,0.0,0.0,0
1718246979297897383,3971,1718246979297804976,navsat_link,0,0,39.9253293769,116.199938649,65.6928024292,0.0,0.0,0.0,0.0,0.0,0.0,0.0,0.0,0.0,0
1718246979347909564,3972,1718246979347786676,navsat_link,0,0,39.9253296545,116.199938318,65.693901062,0.0,0.0,0.0,0.0,0.0,0.0,0.0,0.0,0.0,0
1718246979397918307,3973,1718246979397838806,navsat_link,0,0,39.9253302523,116.199938502,65.6983795166,0.0,0.0,0.0,0.0,0.0,0.0,0.0,0.0,0.0,0
1718246979448046107,3974,1718246979447890509,navsat_link,0,0,39.9253305366,116.199938193,65.6981887817,0.0,0.0,0.0,0.0,0.0,0.0,0.0,0.0,0.0,0
1718246979498083955,3975,1718246979497828340,navsat_link,0,0,39.9253311087,116.199938277,65.7002944946,0.0,0.0,0.0,0.0,0.0,0.0,0.0,0.0,0.0,0
1718246979548245186,3976,1718246979547882669,navsat_link,0,0,39.9253314018,116.199937954,65.7014846802,0.0,0.0,0.0,0.0,0.0,0.0,0.0,0.0,0.0,0
1718246979598074150,3977,1718246979597821149,navsat_link,0,0,39.9253320046,116.199938034,65.7070236206,0.0,0.0,0.0,0.0,0.0,0.0,0.0,0.0,0.0,0
1718246979648116505,3978,1718246979647865135,navsat_link,0,0,39.9253323225,116.19993773,65.7080459595,0.0,0.0,0.0,0.0,0.0,0.0,0.0,0.0,0.0,0
1718246979698222823,3979,1718246979697839134,navsat_link,0,0,39.9253328985,116.199937771,65.7059860229,0.0,0.0,0.0,0.0,0.0,0.0,0.0,0.0,0.0,0
1718246979748250362,3980,1718246979747911319,navsat_link,0,0,39.9253332117,116.199937465,65.7059783936,0.0,0.0,0.0,0.0,0.0,0.0,0.0,0.0,0.0,0
1718246979798127094,3981,1718246979797804550,navsat_link,0,0,39.9253339155,116.19993758,65.6980209351,0.0,0.0,0.0,0.0,0.0,0.0,0.0,0.0,0.0,0
1718246979848221846,3982,1718246979847892148,navsat_link,0,0,39.9253342396,116.199937279,65.6985778809,0.0,0.0,0.0,0.0,0.0,0.0,0.0,0.0,0.0,0
1718246979898101988,3983,1718246979897867456,navsat_link,0,0,39.9253348313,116.199937398,65.6912765503,0.0,0.0,0.0,0.0,0.0,0.0,0.0,0.0,0.0,0
1718246979948400706,3984,1718246979948013608,navsat_link,0,0,39.9253351719,116.199937147,65.6911010742,0.0,0.0,0.0,0.0,0.0,0.0,0.0,0.0,0.0,0
1718246979997831537,3985,1718246979997755324,navsat_link,0,0,39.9253356799,116.199937209,65.6908950806,0.0,0.0,0.0,0.0,0.0,0.0,0.0,0.0,0.0,0
1718246980048034317,3986,1718246980047881879,navsat_link,0,0,39.9253360166,116.199936953,65.6912231445,0.0,0.0,0.0,0.0,0.0,0.0,0.0,0.0,0.0,0
1718246980097842198,3987,1718246980097776721,navsat_link,0,0,39.9253365472,116.199937122,65.6930084229,0.0,0.0,0.0,0.0,0.0,0.0,0.0,0.0,0.0,0
1718246980148011919,3988,1718246980147869446,navsat_link,0,0,39.9253369028,116.199936891,65.6929931641,0.0,0.0,0.0,0.0,0.0,0.0,0.0,0.0,0.0,0
1718246980197961489,3989,1718246980197837730,navsat_link,0,0,39.9253373874,116.199937009,65.6952362061,0.0,0.0,0.0,0.0,0.0,0.0,0.0,0.0,0.0,0
1718246980247970509,3990,1718246980247829139,navsat_link,0,0,39.9253377497,116.199936826,65.69480896,0.0,0.0,0.0,0.0,0.0,0.0,0.0,0.0,0.0,0
1718246980298181996,3991,1718246980297871769,navsat_link,0,0,39.9253382931,116.199936766,65.6975021362,0.0,0.0,0.0,0.0,0.0,0.0,0.0,0.0,0.0,0
1718246980347888329,3992,1718246980347796444,navsat_link,0,0,39.9253386787,116.199936585,65.6983184814,0.0,0.0,0.0,0.0,0.0,0.0,0.0,0.0,0.0,0
1718246980397881227,3993,1718246980397735135,navsat_link,0,0,39.9253391269,116.199936614,65.704826355,0.0,0.0,0.0,0.0,0.0,0.0,0.0,0.0,0.0,0
1718246980448118476,3994,1718246980447806055,navsat_link,0,0,39.9253395067,116.199936456,65.7038803101,0.0,0.0,0.0,0.0,0.0,0.0,0.0,0.0,0.0,0
1718246980498033587,3995,1718246980497849065,navsat_link,0,0,39.9253399746,116.199936494,65.7077560425,0.0,0.0,0.0,0.0,0.0,0.0,0.0,0.0,0.0,0
1718246980547813149,3996,1718246980547714242,navsat_link,0,0,39.9253403773,116.199936361,65.7082595825,0.0,0.0,0.0,0.0,0.0,0.0,0.0,0.0,0.0,0
1718246980597689755,3997,1718246980597638605,navsat_link,0,0,39.9253407976,116.199936363,65.7004318237,0.0,0.0,0.0,0.0,0.0,0.0,0.0,0.0,0.0,0
1718246980647912009,3998,1718246980647784184,navsat_link,0,0,39.9253412005,116.199936243,65.6996307373,0.0,0.0,0.0,0.0,0.0,0.0,0.0,0.0,0.0,0
1718246980697791132,3999,1718246980697710035,navsat_link,0,0,39.9253416658,116.199936327,65.6965942383,0.0,0.0,0.0,0.0,0.0,0.0,0.0,0.0,0.0,0
1718246980747999027,4000,1718246980747815156,navsat_link,0,0,39.9253420593,116.199936172,65.6965789795,0.0,0.0,0.0,0.0,0.0,0.0,0.0,0.0,0.0,0
1718246980798284101,4001,1718246980797961307,navsat_link,0,0,39.9253424558,116.199936208,65.692527771,0.0,0.0,0.0,0.0,0.0,0.0,0.0,0.0,0.0,0
1718246980848185825,4002,1718246980847867624,navsat_link,0,0,39.9253428566,116.19993603,65.6930389404,0.0,0.0,0.0,0.0,0.0,0.0,0.0,0.0,0.0,0
1718246980898456409,4003,1718246980898023056,navsat_link,0,0,39.9253433368,116.199936004,65.6887588501,0.0,0.0,0.0,0.0,0.0,0.0,0.0,0.0,0.0,0
1718246980948084740,4004,1718246980947840130,navsat_link,0,0,39.9253437408,116.199935807,65.6886978149,0.0,0.0,0.0,0.0,0.0,0.0,0.0,0.0,0.0,0
1718246980997964924,4005,1718246980997779120,navsat_link,0,0,39.9253443017,116.199935867,65.6859512329,0.0,0.0,0.0,0.0,0.0,0.0,0.0,0.0,0.0,0
1718246981048261450,4006,1718246981047990153,navsat_link,0,0,39.9253447141,116.199935682,65.6856079102,0.0,0.0,0.0,0.0,0.0,0.0,0.0,0.0,0.0,0
1718246981098179231,4007,1718246981097833375,navsat_link,0,0,39.925345113,116.199935554,65.6907043457,0.0,0.0,0.0,0.0,0.0,0.0,0.0,0.0,0.0,0
1718246981148222884,4008,1718246981147960403,navsat_link,0,0,39.9253455233,116.19993532,65.6916427612,0.0,0.0,0.0,0.0,0.0,0.0,0.0,0.0,0.0,0
1718246981198132032,4009,1718246981197808519,navsat_link,0,0,39.9253461011,116.199935439,65.696647644,0.0,0.0,0.0,0.0,0.0,0.0,0.0,0.0,0.0,0
1718246981248283481,4010,1718246981247938114,navsat_link,0,0,39.9253465206,116.199935219,65.696472168,0.0,0.0,0.0,0.0,0.0,0.0,0.0,0.0,0.0,0
1718246981298116211,4011,1718246981297804728,navsat_link,0,0,39.9253470843,116.1999352,65.6989898682,0.0,0.0,0.0,0.0,0.0,0.0,0.0,0.0,0.0,0
1718246981348225742,4012,1718246981347846166,navsat_link,0,0,39.9253475037,116.19993498,65.6981048584,0.0,0.0,0.0,0.0,0.0,0.0,0.0,0.0,0.0,0
1718246981398412981,4013,1718246981397987908,navsat_link,0,0,39.9253481082,116.199934913,65.7066040039,0.0,0.0,0.0,0.0,0.0,0.0,0.0,0.0,0.0,0
1718246981448336638,4014,1718246981447990972,navsat_link,0,0,39.9253485391,116.199934709,65.7070465088,0.0,0.0,0.0,0.0,0.0,0.0,0.0,0.0,0.0,0
1718246981498093024,4015,1718246981497802215,navsat_link,0,0,39.9253491701,116.199934613,65.7088851929,0.0,0.0,0.0,0.0,0.0,0.0,0.0,0.0,0.0,0
1718246981548330186,4016,1718246981548019382,navsat_link,0,0,39.9253495935,116.199934406,65.7086715698,0.0,0.0,0.0,0.0,0.0,0.0,0.0,0.0,0.0,0
1718246981598201120,4017,1718246981597888591,navsat_link,0,0,39.9253502381,116.199934373,65.7113571167,0.0,0.0,0.0,0.0,0.0,0.0,0.0,0.0,0.0,0
1718246981648352682,4018,1718246981647962525,navsat_link,0,0,39.9253506724,116.199934187,65.7109222412,0.0,0.0,0.0,0.0,0.0,0.0,0.0,0.0,0.0,0
1718246981698256011,4019,1718246981697880983,navsat_link,0,0,39.9253512588,116.199934234,65.7172393799,0.0,0.0,0.0,0.0,0.0,0.0,0.0,0.0,0.0,0
1718246981748186352,4020,1718246981747937972,navsat_link,0,0,39.9253516939,116.199934025,65.7170562744,0.0,0.0,0.0,0.0,0.0,0.0,0.0,0.0,0.0,0
1718246981798399094,4021,1718246981798015236,navsat_link,0,0,39.9253522668,116.199934016,65.7195892334,0.0,0.0,0.0,0.0,0.0,0.0,0.0,0.0,0.0,0
1718246981848279508,4022,1718246981847903695,navsat_link,0,0,39.925352698,116.199933803,65.7185821533,0.0,0.0,0.0,0.0,0.0,0.0,0.0,0.0,0.0,0
1718246981898066818,4023,1718246981897794666,navsat_link,0,0,39.925353105,116.199933685,65.7173080444,0.0,0.0,0.0,0.0,0.0,0.0,0.0,0.0,0.0,0
1718246981948182739,4024,1718246981947816528,navsat_link,0,0,39.925353535,116.199933475,65.7177505493,0.0,0.0,0.0,0.0,0.0,0.0,0.0,0.0,0.0,0
1718246981998205438,4025,1718246981997810361,navsat_link,0,0,39.925354109,116.199933505,65.7120513916,0.0,0.0,0.0,0.0,0.0,0.0,0.0,0.0,0.0,0
1718246982048180921,4026,1718246982047859236,navsat_link,0,0,39.9253545375,116.199933275,65.7125778198,0.0,0.0,0.0,0.0,0.0,0.0,0.0,0.0,0.0,0
1718246982098272505,4027,1718246982097931200,navsat_link,0,0,39.9253551024,116.199933276,65.7152862549,0.0,0.0,0.0,0.0,0.0,0.0,0.0,0.0,0.0,0
1718246982148309892,4028,1718246982148057852,navsat_link,0,0,39.9253555464,116.19993309,65.7154083252,0.0,0.0,0.0,0.0,0.0,0.0,0.0,0.0,0.0,0
1718246982197786747,4029,1718246982197719542,navsat_link,0,0,39.9253561225,116.199933133,65.7138290405,0.0,0.0,0.0,0.0,0.0,0.0,0.0,0.0,0.0,0
1718246982248100881,4030,1718246982247817407,navsat_link,0,0,39.9253565701,116.199932916,65.7151107788,0.0,0.0,0.0,0.0,0.0,0.0,0.0,0.0,0.0,0
1718246982298117957,4031,1718246982297802312,navsat_link,0,0,39.9253571667,116.199933005,65.7171783447,0.0,0.0,0.0,0.0,0.0,0.0,0.0,0.0,0.0,0
1718246982348196898,4032,1718246982347858462,navsat_link,0,0,39.9253576282,116.199932783,65.7177352905,0.0,0.0,0.0,0.0,0.0,0.0,0.0,0.0,0.0,0
1718246982398287086,4033,1718246982397941595,navsat_link,0,0,39.9253582211,116.199932816,65.7251358032,0.0,0.0,0.0,0.0,0.0,0.0,0.0,0.0,0.0,0
1718246982448354738,4034,1718246982447972945,navsat_link,0,0,39.9253587034,116.199932633,65.7267913818,0.0,0.0,0.0,0.0,0.0,0.0,0.0,0.0,0.0,0
1718246982497862593,4035,1718246982497785203,navsat_link,0,0,39.9253593511,116.199932642,65.7124252319,0.0,0.0,0.0,0.0,0.0,0.0,0.0,0.0,0.0,0
1718246982548026739,4036,1718246982547901608,navsat_link,0,0,39.9253598289,116.199932464,65.7132492065,0.0,0.0,0.0,0.0,0.0,0.0,0.0,0.0,0.0,0
1718246982597875234,4037,1718246982597788207,navsat_link,0,0,39.9253604875,116.199932457,65.6952819824,0.0,0.0,0.0,0.0,0.0,0.0,0.0,0.0,0.0,0
1718246982647940624,4038,1718246982647869400,navsat_link,0,0,39.9253609765,116.19993229,65.6948776245,0.0,0.0,0.0,0.0,0.0,0.0,0.0,0.0,0.0,0
1718246982697934200,4039,1718246982697816989,navsat_link,0,0,39.9253616241,116.199932292,65.6872940063,0.0,0.0,0.0,0.0,0.0,0.0,0.0,0.0,0.0,0
1718246982748054428,4040,1718246982747867435,navsat_link,0,0,39.9253621059,116.19993212,65.6869812012,0.0,0.0,0.0,0.0,0.0,0.0,0.0,0.0,0.0,0
1718246982798181745,4041,1718246982797900953,navsat_link,0,0,39.9253626941,116.199932145,65.6878738403,0.0,0.0,0.0,0.0,0.0,0.0,0.0,0.0,0.0,0
1718246982848378332,4042,1718246982848097562,navsat_link,0,0,39.9253631768,116.199931968,65.6878051758,0.0,0.0,0.0,0.0,0.0,0.0,0.0,0.0,0.0,0
1718246982898175289,4043,1718246982897926783,navsat_link,0,0,39.9253637877,116.199931957,65.6870498657,0.0,0.0,0.0,0.0,0.0,0.0,0.0,0.0,0.0,0
1718246982948366605,4044,1718246982948005363,navsat_link,0,0,39.9253642708,116.199931758,65.686416626,0.0,0.0,0.0,0.0,0.0,0.0,0.0,0.0,0.0,0
1718246982998181415,4045,1718246982997792947,navsat_link,0,0,39.9253648491,116.199931718,65.6870193481,0.0,0.0,0.0,0.0,0.0,0.0,0.0,0.0,0.0,0
1718246983048396132,4046,1718246983047989928,navsat_link,0,0,39.92536533,116.199931552,65.6858673096,0.0,0.0,0.0,0.0,0.0,0.0,0.0,0.0,0.0,0
1718246983098105766,4047,1718246983097859565,navsat_link,0,0,39.9253658718,116.19993142,65.6863708496,0.0,0.0,0.0,0.0,0.0,0.0,0.0,0.0,0.0,0
1718246983147766055,4048,1718246983147665133,navsat_link,0,0,39.9253663573,116.199931217,65.6876144409,0.0,0.0,0.0,0.0,0.0,0.0,0.0,0.0,0.0,0
1718246983197864766,4049,1718246983197797736,navsat_link,0,0,39.9253669702,116.199931268,65.6857833862,0.0,0.0,0.0,0.0,0.0,0.0,0.0,0.0,0.0,0
1718246983248125670,4050,1718246983247924652,navsat_link,0,0,39.9253674701,116.199931096,65.6852035522,0.0,0.0,0.0,0.0,0.0,0.0,0.0,0.0,0.0,0
1718246983298200652,4051,1718246983297900623,navsat_link,0,0,39.9253680801,116.199931082,65.6783676147,0.0,0.0,0.0,0.0,0.0,0.0,0.0,0.0,0.0,0
1718246983348239109,4052,1718246983347896970,navsat_link,0,0,39.9253685749,116.199930932,65.6769104004,0.0,0.0,0.0,0.0,0.0,0.0,0.0,0.0,0.0,0
1718246983398446867,4053,1718246983398054704,navsat_link,0,0,39.9253692152,116.199930919,65.6736602783,0.0,0.0,0.0,0.0,0.0,0.0,0.0,0.0,0.0,0
1718246983448076905,4054,1718246983447906190,navsat_link,0,0,39.9253697311,116.19993079,65.6738357544,0.0,0.0,0.0,0.0,0.0,0.0,0.0,0.0,0.0,0
1718246983498005273,4055,1718246983497855083,navsat_link,0,0,39.9253703345,116.199930649,65.6696929932,0.0,0.0,0.0,0.0,0.0,0.0,0.0,0.0,0.0,0
1718246983548094233,4056,1718246983547967833,navsat_link,0,0,39.9253708436,116.199930504,65.6698913574,0.0,0.0,0.0,0.0,0.0,0.0,0.0,0.0,0.0,0
1718246983598230479,4057,1718246983597940970,navsat_link,0,0,39.9253714187,116.199930385,65.6759338379,0.0,0.0,0.0,0.0,0.0,0.0,0.0,0.0,0.0,0
1718246983648338455,4058,1718246983647940317,navsat_link,0,0,39.9253719413,116.199930272,65.6738815308,0.0,0.0,0.0,0.0,0.0,0.0,0.0,0.0,0.0,0
1718246983698284167,4059,1718246983697946400,navsat_link,0,0,39.9253724805,116.199930097,65.6851272583,0.0,0.0,0.0,0.0,0.0,0.0,0.0,0.0,0.0,0
1718246983748342369,4060,1718246983748042775,navsat_link,0,0,39.9253729831,116.199929937,65.6862335205,0.0,0.0,0.0,0.0,0.0,0.0,0.0,0.0,0.0,0
1718246983797909681,4061,1718246983797837677,navsat_link,0,0,39.9253735773,116.199929893,65.6866607666,0.0,0.0,0.0,0.0,0.0,0.0,0.0,0.0,0.0,0
1718246983848012506,4062,1718246983847872535,navsat_link,0,0,39.925374094,116.199929753,65.6866912842,0.0,0.0,0.0,0.0,0.0,0.0,0.0,0.0,0.0,0
1718246983897897996,4063,1718246983897829956,navsat_link,0,0,39.92537459,116.199929521,65.6806564331,0.0,0.0,0.0,0.0,0.0,0.0,0.0,0.0,0.0,0
1718246983947846734,4064,1718246983947794144,navsat_link,0,0,39.9253751283,116.199929388,65.6823501587,0.0,0.0,0.0,0.0,0.0,0.0,0.0,0.0,0.0,0
1718246983997842715,4065,1718246983997790304,navsat_link,0,0,39.9253756678,116.199929172,65.6784362793,0.0,0.0,0.0,0.0,0.0,0.0,0.0,0.0,0.0,0
1718246984047939787,4066,1718246984047833135,navsat_link,0,0,39.9253761809,116.199929015,65.6771392822,0.0,0.0,0.0,0.0,0.0,0.0,0.0,0.0,0.0,0
1718246984097818631,4067,1718246984097766448,navsat_link,0,0,39.9253767932,116.199928852,65.6814727783,0.0,0.0,0.0,0.0,0.0,0.0,0.0,0.0,0.0,0
1718246984147881174,4068,1718246984147790918,navsat_link,0,0,39.9253772912,116.199928682,65.6831741333,0.0,0.0,0.0,0.0,0.0,0.0,0.0,0.0,0.0,0
1718246984197848776,4069,1718246984197765232,navsat_link,0,0,39.9253779654,116.199928533,65.6816558838,0.0,0.0,0.0,0.0,0.0,0.0,0.0,0.0,0.0,0
1718246984247857588,4070,1718246984247798513,navsat_link,0,0,39.9253784616,116.199928363,65.6826782227,0.0,0.0,0.0,0.0,0.0,0.0,0.0,0.0,0.0,0
1718246984297842978,4071,1718246984297778133,navsat_link,0,0,39.9253790273,116.199928199,65.683013916,0.0,0.0,0.0,0.0,0.0,0.0,0.0,0.0,0.0,0
1718246984347872409,4072,1718246984347812491,navsat_link,0,0,39.92537953,116.199928053,65.6832809448,0.0,0.0,0.0,0.0,0.0,0.0,0.0,0.0,0.0,0
1718246984397858732,4073,1718246984397792233,navsat_link,0,0,39.9253801245,116.199927888,65.6833190918,0.0,0.0,0.0,0.0,0.0,0.0,0.0,0.0,0.0,0
1718246984447875401,4074,1718246984447782056,navsat_link,0,0,39.9253806326,116.199927742,65.6845626831,0.0,0.0,0.0,0.0,0.0,0.0,0.0,0.0,0.0,0
1718246984498107167,4075,1718246984497901851,navsat_link,0,0,39.9253811863,116.199927636,65.6824874878,0.0,0.0,0.0,0.0,0.0,0.0,0.0,0.0,0.0,0
1718246984547849695,4076,1718246984547787457,navsat_link,0,0,39.9253816907,116.199927496,65.6821289062,0.0,0.0,0.0,0.0,0.0,0.0,0.0,0.0,0.0,0
1718246984597871863,4077,1718246984597798703,navsat_link,0,0,39.9253822219,116.199927201,65.685043335,0.0,0.0,0.0,0.0,0.0,0.0,0.0,0.0,0.0,0
1718246984647832598,4078,1718246984647762410,navsat_link,0,0,39.9253827385,116.199927054,65.6854553223,0.0,0.0,0.0,0.0,0.0,0.0,0.0,0.0,0.0,0
1718246984697865752,4079,1718246984697792303,navsat_link,0,0,39.9253833167,116.199926848,65.6884689331,0.0,0.0,0.0,0.0,0.0,0.0,0.0,0.0,0.0,0
1718246984747869620,4080,1718246984747788232,navsat_link,0,0,39.9253838297,116.199926704,65.6885375977,0.0,0.0,0.0,0.0,0.0,0.0,0.0,0.0,0.0,0
1718246984797857687,4081,1718246984797799640,navsat_link,0,0,39.9253844607,116.199926512,65.6893997192,0.0,0.0,0.0,0.0,0.0,0.0,0.0,0.0,0.0,0
1718246984848043085,4082,1718246984847835257,navsat_link,0,0,39.9253849462,116.199926334,65.6893615723,0.0,0.0,0.0,0.0,0.0,0.0,0.0,0.0,0.0,0
1718246984897836659,4083,1718246984897786289,navsat_link,0,0,39.9253856043,116.199926136,65.6848602295,0.0,0.0,0.0,0.0,0.0,0.0,0.0,0.0,0.0,0
1718246984947858517,4084,1718246984947790635,navsat_link,0,0,39.9253861013,116.199925961,65.6856231689,0.0,0.0,0.0,0.0,0.0,0.0,0.0,0.0,0.0,0
1718246984997891643,4085,1718246984997793927,navsat_link,0,0,39.925386726,116.19992585,65.6791229248,0.0,0.0,0.0,0.0,0.0,0.0,0.0,0.0,0.0,0
1718246985047920128,4086,1718246985047813449,navsat_link,0,0,39.9253872148,116.199925664,65.6792297363,0.0,0.0,0.0,0.0,0.0,0.0,0.0,0.0,0.0,0
1718246985097853635,4087,1718246985097797243,navsat_link,0,0,39.9253878422,116.199925568,65.6755447388,0.0,0.0,0.0,0.0,0.0,0.0,0.0,0.0,0.0,0
1718246985147856605,4088,1718246985147793243,navsat_link,0,0,39.9253883303,116.199925407,65.6748962402,0.0,0.0,0.0,0.0,0.0,0.0,0.0,0.0,0.0,0
1718246985197879291,4089,1718246985197805389,navsat_link,0,0,39.9253889008,116.199925222,65.6735839844,0.0,0.0,0.0,0.0,0.0,0.0,0.0,0.0,0.0,0
1718246985247845756,4090,1718246985247790017,navsat_link,0,0,39.925389403,116.199925054,65.6757659912,0.0,0.0,0.0,0.0,0.0,0.0,0.0,0.0,0.0,0
1718246985297905839,4091,1718246985297813774,navsat_link,0,0,39.9253900143,116.199924956,65.6804504395,0.0,0.0,0.0,0.0,0.0,0.0,0.0,0.0,0.0,0
1718246985347849355,4092,1718246985347792800,navsat_link,0,0,39.9253905207,116.199924825,65.6792221069,0.0,0.0,0.0,0.0,0.0,0.0,0.0,0.0,0.0,0
1718246985397875546,4093,1718246985397798845,navsat_link,0,0,39.9253909733,116.199924665,65.6784973145,0.0,0.0,0.0,0.0,0.0,0.0,0.0,0.0,0.0,0
1718246985447836581,4094,1718246985447776588,navsat_link,0,0,39.9253914661,116.199924521,65.6795654297,0.0,0.0,0.0,0.0,0.0,0.0,0.0,0.0,0.0,0
1718246985497879689,4095,1718246985497808935,navsat_link,0,0,39.9253919802,116.199924337,65.67552948,0.0,0.0,0.0,0.0,0.0,0.0,0.0,0.0,0.0,0
1718246985547919471,4096,1718246985547813331,navsat_link,0,0,39.9253924867,116.1999242,65.6750411987,0.0,0.0,0.0,0.0,0.0,0.0,0.0,0.0,0.0,0
1718246985597862332,4097,1718246985597803690,navsat_link,0,0,39.9253929426,116.199923982,65.6713867188,0.0,0.0,0.0,0.0,0.0,0.0,0.0,0.0,0.0,0
1718246985648029249,4098,1718246985647875440,navsat_link,0,0,39.9253934573,116.199923842,65.6722793579,0.0,0.0,0.0,0.0,0.0,0.0,0.0,0.0,0.0,0
1718246985697860077,4099,1718246985697802861,navsat_link,0,0,39.9253940211,116.199923771,65.6672134399,0.0,0.0,0.0,0.0,0.0,0.0,0.0,0.0,0.0,0
1718246985747880716,4100,1718246985747768596,navsat_link,0,0,39.9253945047,116.199923612,65.6656341553,0.0,0.0,0.0,0.0,0.0,0.0,0.0,0.0,0.0,0
1718246985797905600,4101,1718246985797831509,navsat_link,0,0,39.9253949958,116.19992344,65.6696243286,0.0,0.0,0.0,0.0,0.0,0.0,0.0,0.0,0.0,0
1718246985848115656,4102,1718246985848012170,navsat_link,0,0,39.9253954626,116.199923259,65.6699447632,0.0,0.0,0.0,0.0,0.0,0.0,0.0,0.0,0.0,0
1718246985897858127,4103,1718246985897797330,navsat_link,0,0,39.9253960511,116.199923067,65.6710662842,0.0,0.0,0.0,0.0,0.0,0.0,0.0,0.0,0.0,0
1718246985947950637,4104,1718246985947787921,navsat_link,0,0,39.9253965262,116.199922893,65.6720123291,0.0,0.0,0.0,0.0,0.0,0.0,0.0,0.0,0.0,0
1718246985997894554,4105,1718246985997808185,navsat_link,0,0,39.9253970763,116.199922564,65.6689834595,0.0,0.0,0.0,0.0,0.0,0.0,0.0,0.0,0.0,0
1718246986047843667,4106,1718246986047788563,navsat_link,0,0,39.9253975296,116.199922337,65.6693191528,0.0,0.0,0.0,0.0,0.0,0.0,0.0,0.0,0.0,0
1718246986097895939,4107,1718246986097808695,navsat_link,0,0,39.9253981643,116.199922176,65.6712875366,0.0,0.0,0.0,0.0,0.0,0.0,0.0,0.0,0.0,0
1718246986147867291,4108,1718246986147797228,navsat_link,0,0,39.9253986077,116.199921953,65.6713943481,0.0,0.0,0.0,0.0,0.0,0.0,0.0,0.0,0.0,0
1718246986197862788,4109,1718246986197802040,navsat_link,0,0,39.9253992803,116.199921772,65.6749420166,0.0,0.0,0.0,0.0,0.0,0.0,0.0,0.0,0.0,0
1718246986247919724,4110,1718246986247801839,navsat_link,0,0,39.9253997253,116.199921549,65.6769638062,0.0,0.0,0.0,0.0,0.0,0.0,0.0,0.0,0.0,0
1718246986297858337,4111,1718246986297796222,navsat_link,0,0,39.925400399,116.199921365,65.6735076904,0.0,0.0,0.0,0.0,0.0,0.0,0.0,0.0,0.0,0
1718246986347905543,4112,1718246986347836249,navsat_link,0,0,39.9254008579,116.199921151,65.6737136841,0.0,0.0,0.0,0.0,0.0,0.0,0.0,0.0,0.0,0
1718246986397854538,4113,1718246986397774995,navsat_link,0,0,39.9254014995,116.199920915,65.6763687134,0.0,0.0,0.0,0.0,0.0,0.0,0.0,0.0,0.0,0
1718246986448023489,4114,1718246986447814753,navsat_link,0,0,39.925401967,116.199920695,65.6779556274,0.0,0.0,0.0,0.0,0.0,0.0,0.0,0.0,0.0,0
1718246986497878365,4115,1718246986497797314,navsat_link,0,0,39.9254025914,116.199920553,65.6767578125,0.0,0.0,0.0,0.0,0.0,0.0,0.0,0.0,0.0,0
1718246986547857625,4116,1718246986547795922,navsat_link,0,0,39.925403055,116.19992035,65.6764831543,0.0,0.0,0.0,0.0,0.0,0.0,0.0,0.0,0.0,0
1718246986597850296,4117,1718246986597789955,navsat_link,0,0,39.9254036316,116.199920139,65.6804580688,0.0,0.0,0.0,0.0,0.0,0.0,0.0,0.0,0.0,0
1718246986647939694,4118,1718246986647802427,navsat_link,0,0,39.9254041172,116.199919946,65.681022644,0.0,0.0,0.0,0.0,0.0,0.0,0.0,0.0,0.0,0
1718246986697869881,4119,1718246986697801285,navsat_link,0,0,39.9254047484,116.199919734,65.6807098389,0.0,0.0,0.0,0.0,0.0,0.0,0.0,0.0,0.0,0
1718246986747844755,4120,1718246986747793117,navsat_link,0,0,39.92540521,116.199919515,65.6815032959,0.0,0.0,0.0,0.0,0.0,0.0,0.0,0.0,0.0,0
1718246986797870481,4121,1718246986797808015,navsat_link,0,0,39.9254058081,116.199919324,65.6815795898,0.0,0.0,0.0,0.0,0.0,0.0,0.0,0.0,0.0,0
1718246986847822551,4122,1718246986847770869,navsat_link,0,0,39.9254062675,116.199919117,65.6816635132,0.0,0.0,0.0,0.0,0.0,0.0,0.0,0.0,0.0,0
1718246986897928783,4123,1718246986897808348,navsat_link,0,0,39.9254069436,116.199919022,65.6815414429,0.0,0.0,0.0,0.0,0.0,0.0,0.0,0.0,0.0,0
1718246986947850871,4124,1718246986947796099,navsat_link,0,0,39.9254073944,116.199918806,65.6806182861,0.0,0.0,0.0,0.0,0.0,0.0,0.0,0.0,0.0,0
1718246986997904172,4125,1718246986997802643,navsat_link,0,0,39.9254080201,116.199918649,65.6785507202,0.0,0.0,0.0,0.0,0.0,0.0,0.0,0.0,0.0,0
1718246987048134217,4126,1718246987047808487,navsat_link,0,0,39.9254084824,116.199918436,65.6793746948,0.0,0.0,0.0,0.0,0.0,0.0,0.0,0.0,0.0,0
1718246987097877650,4127,1718246987097812471,navsat_link,0,0,39.925409027,116.199918204,65.6792449951,0.0,0.0,0.0,0.0,0.0,0.0,0.0,0.0,0.0,0
1718246987147865873,4128,1718246987147781574,navsat_link,0,0,39.9254094838,116.199917978,65.6791687012,0.0,0.0,0.0,0.0,0.0,0.0,0.0,0.0,0.0,0
1718246987197817469,4129,1718246987197764397,navsat_link,0,0,39.9254100597,116.199917797,65.6788864136,0.0,0.0,0.0,0.0,0.0,0.0,0.0,0.0,0.0,0
1718246987248067613,4130,1718246987247844201,navsat_link,0,0,39.9254105071,116.199917554,65.6785736084,0.0,0.0,0.0,0.0,0.0,0.0,0.0,0.0,0.0,0
1718246987297831519,4131,1718246987297771447,navsat_link,0,0,39.9254111338,116.199917484,65.6854248047,0.0,0.0,0.0,0.0,0.0,0.0,0.0,0.0,0.0,0
1718246987347882041,4132,1718246987347804491,navsat_link,0,0,39.9254115927,116.199917255,65.6855926514,0.0,0.0,0.0,0.0,0.0,0.0,0.0,0.0,0.0,0
1718246987397857604,4133,1718246987397790403,navsat_link,0,0,39.9254122384,116.19991719,65.6848068237,0.0,0.0,0.0,0.0,0.0,0.0,0.0,0.0,0.0,0
1718246987447988844,4134,1718246987447852959,navsat_link,0,0,39.9254126919,116.199916952,65.6847305298,0.0,0.0,0.0,0.0,0.0,0.0,0.0,0.0,0.0,0
1718246987497827274,4135,1718246987497766831,navsat_link,0,0,39.925413326,116.199916844,65.6857681274,0.0,0.0,0.0,0.0,0.0,0.0,0.0,0.0,0.0,0
1718246987547878633,4136,1718246987547802158,navsat_link,0,0,39.9254137955,116.199916616,65.6860580444,0.0,0.0,0.0,0.0,0.0,0.0,0.0,0.0,0.0,0
1718246987598201818,4137,1718246987597887136,navsat_link,0,0,39.9254143947,116.199916463,65.6866149902,0.0,0.0,0.0,0.0,0.0,0.0,0.0,0.0,0.0,0
1718246987647949656,4138,1718246987647832714,navsat_link,0,0,39.9254148885,116.19991624,65.6862716675,0.0,0.0,0.0,0.0,0.0,0.0,0.0,0.0,0.0,0
1718246987698134780,4139,1718246987697897249,navsat_link,0,0,39.9254155174,116.199916108,65.6806182861,0.0,0.0,0.0,0.0,0.0,0.0,0.0,0.0,0.0,0
1718246987747819193,4140,1718246987747763009,navsat_link,0,0,39.925415968,116.199915876,65.6796112061,0.0,0.0,0.0,0.0,0.0,0.0,0.0,0.0,0.0,0
1718246987797933457,4141,1718246987797815560,navsat_link,0,0,39.9254166636,116.19991569,65.6794281006,0.0,0.0,0.0,0.0,0.0,0.0,0.0,0.0,0.0,0
1718246987847874408,4142,1718246987847773389,navsat_link,0,0,39.9254171286,116.199915444,65.6790313721,0.0,0.0,0.0,0.0,0.0,0.0,0.0,0.0,0.0,0
1718246987897882442,4143,1718246987897831801,navsat_link,0,0,39.9254177562,116.199915285,65.6845779419,0.0,0.0,0.0,0.0,0.0,0.0,0.0,0.0,0.0,0
1718246987947850440,4144,1718246987947785461,navsat_link,0,0,39.9254182197,116.199915077,65.684135437,0.0,0.0,0.0,0.0,0.0,0.0,0.0,0.0,0.0,0
1718246987997884719,4145,1718246987997820114,navsat_link,0,0,39.9254188506,116.199914831,65.6860961914,0.0,0.0,0.0,0.0,0.0,0.0,0.0,0.0,0.0,0
1718246988048027962,4146,1718246988047868579,navsat_link,0,0,39.9254193241,116.199914597,65.6862030029,0.0,0.0,0.0,0.0,0.0,0.0,0.0,0.0,0.0,0
1718246988097861976,4147,1718246988097797513,navsat_link,0,0,39.9254199557,116.199914408,65.6821289062,0.0,0.0,0.0,0.0,0.0,0.0,0.0,0.0,0.0,0
1718246988147936023,4148,1718246988147822841,navsat_link,0,0,39.9254204236,116.199914198,65.6812973022,0.0,0.0,0.0,0.0,0.0,0.0,0.0,0.0,0.0,0
1718246988197925137,4149,1718246988197850689,navsat_link,0,0,39.9254210977,116.199913979,65.6874542236,0.0,0.0,0.0,0.0,0.0,0.0,0.0,0.0,0.0,0
1718246988247948115,4150,1718246988247818795,navsat_link,0,0,39.925421554,116.199913747,65.6874465942,0.0,0.0,0.0,0.0,0.0,0.0,0.0,0.0,0.0,0
1718246988297857451,4151,1718246988297780151,navsat_link,0,0,39.9254222326,116.19991348,65.6930541992,0.0,0.0,0.0,0.0,0.0,0.0,0.0,0.0,0.0,0
1718246988347901843,4152,1718246988347801342,navsat_link,0,0,39.9254226824,116.199913238,65.6928024292,0.0,0.0,0.0,0.0,0.0,0.0,0.0,0.0,0.0,0
1718246988397867219,4153,1718246988397800016,navsat_link,0,0,39.9254233708,116.199912953,65.6911468506,0.0,0.0,0.0,0.0,0.0,0.0,0.0,0.0,0.0,0
1718246988447859561,4154,1718246988447794764,navsat_link,0,0,39.9254238147,116.199912703,65.6917877197,0.0,0.0,0.0,0.0,0.0,0.0,0.0,0.0,0.0,0
1718246988498071823,4155,1718246988497893064,navsat_link,0,0,39.9254244946,116.199912446,65.6932144165,0.0,0.0,0.0,0.0,0.0,0.0,0.0,0.0,0.0,0
1718246988547855186,4156,1718246988547790675,navsat_link,0,0,39.925424938,116.199912202,65.692199707,0.0,0.0,0.0,0.0,0.0,0.0,0.0,0.0,0.0,0
1718246988597943906,4157,1718246988597809512,navsat_link,0,0,39.925425597,116.19991198,65.6998062134,0.0,0.0,0.0,0.0,0.0,0.0,0.0,0.0,0.0,0
1718246988647849812,4158,1718246988647791233,navsat_link,0,0,39.9254260655,116.199911752,65.6986312866,0.0,0.0,0.0,0.0,0.0,0.0,0.0,0.0,0.0,0
1718246988697896162,4159,1718246988697806312,navsat_link,0,0,39.9254267062,116.199911511,65.6983795166,0.0,0.0,0.0,0.0,0.0,0.0,0.0,0.0,0.0,0
1718246988747840586,4160,1718246988747774516,navsat_link,0,0,39.9254271451,116.199911267,65.6985549927,0.0,0.0,0.0,0.0,0.0,0.0,0.0,0.0,0.0,0
1718246988797850731,4161,1718246988797793914,navsat_link,0,0,39.9254278175,116.199911008,65.6913833618,0.0,0.0,0.0,0.0,0.0,0.0,0.0,0.0,0.0,0
1718246988848043861,4162,1718246988847851113,navsat_link,0,0,39.9254282482,116.199910753,65.6926040649,0.0,0.0,0.0,0.0,0.0,0.0,0.0,0.0,0.0,0
1718246988897859797,4163,1718246988897798773,navsat_link,0,0,39.9254289485,116.199910467,65.6876068115,0.0,0.0,0.0,0.0,0.0,0.0,0.0,0.0,0.0,0
1718246988947946170,4164,1718246988947814341,navsat_link,0,0,39.9254293686,116.199910202,65.688079834,0.0,0.0,0.0,0.0,0.0,0.0,0.0,0.0,0.0,0
1718246988997874399,4165,1718246988997818320,navsat_link,0,0,39.9254300908,116.199909946,65.6796875,0.0,0.0,0.0,0.0,0.0,0.0,0.0,0.0,0.0,0
1718246989047942253,4166,1718246989047783984,navsat_link,0,0,39.9254305147,116.199909698,65.6792221069,0.0,0.0,0.0,0.0,0.0,0.0,0.0,0.0,0.0,0
1718246989097912274,4167,1718246989097826235,navsat_link,0,0,39.9254312128,116.199909443,65.6757354736,0.0,0.0,0.0,0.0,0.0,0.0,0.0,0.0,0.0,0
1718246989147836319,4168,1718246989147772545,navsat_link,0,0,39.9254316618,116.199909205,65.6750411987,0.0,0.0,0.0,0.0,0.0,0.0,0.0,0.0,0.0,0
1718246989197886877,4169,1718246989197808065,navsat_link,0,0,39.9254323635,116.199908966,65.6693954468,0.0,0.0,0.0,0.0,0.0,0.0,0.0,0.0,0.0,0
1718246989247838825,4170,1718246989247779497,navsat_link,0,0,39.9254327986,116.199908728,65.6689834595,0.0,0.0,0.0,0.0,0.0,0.0,0.0,0.0,0.0,0
1718246989298056388,4171,1718246989297895111,navsat_link,0,0,39.9254333854,116.199908451,65.668258667,0.0,0.0,0.0,0.0,0.0,0.0,0.0,0.0,0.0,0
1718246989347844330,4172,1718246989347765043,navsat_link,0,0,39.9254338111,116.199908196,65.668762207,0.0,0.0,0.0,0.0,0.0,0.0,0.0,0.0,0.0,0
1718246989397942762,4173,1718246989397835563,navsat_link,0,0,39.9254344557,116.199907927,65.6649475098,0.0,0.0,0.0,0.0,0.0,0.0,0.0,0.0,0.0,0
1718246989447837790,4174,1718246989447771181,navsat_link,0,0,39.9254348839,116.199907665,65.664390564,0.0,0.0,0.0,0.0,0.0,0.0,0.0,0.0,0.0,0
1718246989497857409,4175,1718246989497794345,navsat_link,0,0,39.9254354838,116.199907416,65.6653137207,0.0,0.0,0.0,0.0,0.0,0.0,0.0,0.0,0.0,0
1718246989547856325,4176,1718246989547768761,navsat_link,0,0,39.9254359053,116.19990717,65.6648101807,0.0,0.0,0.0,0.0,0.0,0.0,0.0,0.0,0.0,0
1718246989597897910,4177,1718246989597834345,navsat_link,0,0,39.9254365256,116.199906859,65.6700897217,0.0,0.0,0.0,0.0,0.0,0.0,0.0,0.0,0.0,0
1718246989647996404,4178,1718246989647839441,navsat_link,0,0,39.9254369849,116.199906619,65.6694869995,0.0,0.0,0.0,0.0,0.0,0.0,0.0,0.0,0.0,0
1718246989697862677,4179,1718246989697797439,navsat_link,0,0,39.9254376464,116.199906329,65.6637878418,0.0,0.0,0.0,0.0,0.0,0.0,0.0,0.0,0.0,0
1718246989748104617,4180,1718246989747894649,navsat_link,0,0,39.9254380912,116.199906087,65.6629867554,0.0,0.0,0.0,0.0,0.0,0.0,0.0,0.0,0.0,0
1718246989797876649,4181,1718246989797814157,navsat_link,0,0,39.9254386711,116.199905753,65.6670074463,0.0,0.0,0.0,0.0,0.0,0.0,0.0,0.0,0.0,0
1718246989848025394,4182,1718246989847808213,navsat_link,0,0,39.9254391153,116.199905502,65.6652374268,0.0,0.0,0.0,0.0,0.0,0.0,0.0,0.0,0.0,0
1718246989897855172,4183,1718246989897797161,navsat_link,0,0,39.9254396897,116.199905259,65.6593322754,0.0,0.0,0.0,0.0,0.0,0.0,0.0,0.0,0.0,0
1718246989947871859,4184,1718246989947781247,navsat_link,0,0,39.9254401037,116.199904978,65.6597900391,0.0,0.0,0.0,0.0,0.0,0.0,0.0,0.0,0.0,0
1718246989997842685,4185,1718246989997774638,navsat_link,0,0,39.925440649,116.199904687,65.6560974121,0.0,0.0,0.0,0.0,0.0,0.0,0.0,0.0,0.0,0
1718246990047852451,4186,1718246990047800072,navsat_link,0,0,39.9254410698,116.199904417,65.6543121338,0.0,0.0,0.0,0.0,0.0,0.0,0.0,0.0,0.0,0
1718246990097946011,4187,1718246990097818612,navsat_link,0,0,39.9254417287,116.199904151,65.6544799805,0.0,0.0,0.0,0.0,0.0,0.0,0.0,0.0,0.0,0
1718246990147866223,4188,1718246990147798881,navsat_link,0,0,39.9254421164,116.19990384,65.6538543701,0.0,0.0,0.0,0.0,0.0,0.0,0.0,0.0,0.0,0
1718246990197954551,4189,1718246990197822236,navsat_link,0,0,39.9254427951,116.1999036,65.6496276855,0.0,0.0,0.0,0.0,0.0,0.0,0.0,0.0,0.0,0
1718246990247872269,4190,1718246990247808757,navsat_link,0,0,39.9254432096,116.199903312,65.6473464966,0.0,0.0,0.0,0.0,0.0,0.0,0.0,0.0,0.0,0
1718246990297864933,4191,1718246990297814968,navsat_link,0,0,39.9254438761,116.199903059,65.6460418701,0.0,0.0,0.0,0.0,0.0,0.0,0.0,0.0,0.0,0
1718246990347886753,4192,1718246990347793490,navsat_link,0,0,39.925444301,116.199902773,65.6433563232,0.0,0.0,0.0,0.0,0.0,0.0,0.0,0.0,0.0,0
1718246990397884049,4193,1718246990397818105,navsat_link,0,0,39.925444947,116.199902528,65.6448059082,0.0,0.0,0.0,0.0,0.0,0.0,0.0,0.0,0.0,0
1718246990447935555,4194,1718246990447783490,navsat_link,0,0,39.925445338,116.199902208,65.6448745728,0.0,0.0,0.0,0.0,0.0,0.0,0.0,0.0,0.0,0
1718246990497909510,4195,1718246990497849994,navsat_link,0,0,39.9254459973,116.199901996,65.6459121704,0.0,0.0,0.0,0.0,0.0,0.0,0.0,0.0,0.0,0
1718246990547973948,4196,1718246990547837936,navsat_link,0,0,39.9254464045,116.199901684,65.6452255249,0.0,0.0,0.0,0.0,0.0,0.0,0.0,0.0,0.0,0
1718246990597865907,4197,1718246990597803253,navsat_link,0,0,39.9254470197,116.199901444,65.6473007202,0.0,0.0,0.0,0.0,0.0,0.0,0.0,0.0,0.0,0
1718246990647970065,4198,1718246990647811820,navsat_link,0,0,39.9254474782,116.199901153,65.6454238892,0.0,0.0,0.0,0.0,0.0,0.0,0.0,0.0,0.0,0
1718246990697813325,4199,1718246990697765795,navsat_link,0,0,39.925448083,116.199900941,65.6477432251,0.0,0.0,0.0,0.0,0.0,0.0,0.0,0.0,0.0,0
1718246990747879244,4200,1718246990747795817,navsat_link,0,0,39.9254485426,116.199900675,65.6450195312,0.0,0.0,0.0,0.0,0.0,0.0,0.0,0.0,0.0,0
1718246990797876828,4201,1718246990797779577,navsat_link,0,0,39.9254491724,116.199900452,65.645942688,0.0,0.0,0.0,0.0,0.0,0.0,0.0,0.0,0.0,0
1718246990847880589,4202,1718246990847790403,navsat_link,0,0,39.9254496148,116.199900186,65.6468582153,0.0,0.0,0.0,0.0,0.0,0.0,0.0,0.0,0.0,0
1718246990898033480,4203,1718246990897861878,navsat_link,0,0,39.9254501913,116.199899949,65.6423568726,0.0,0.0,0.0,0.0,0.0,0.0,0.0,0.0,0.0,0
1718246990947860982,4204,1718246990947799535,navsat_link,0,0,39.9254506347,116.19989969,65.6419296265,0.0,0.0,0.0,0.0,0.0,0.0,0.0,0.0,0.0,0
1718246990997928006,4205,1718246990997811988,navsat_link,0,0,39.9254511329,116.199899458,65.6483840942,0.0,0.0,0.0,0.0,0.0,0.0,0.0,0.0,0.0,0
1718246991047864258,4206,1718246991047805556,navsat_link,0,0,39.9254516042,116.199899233,65.6454315186,0.0,0.0,0.0,0.0,0.0,0.0,0.0,0.0,0.0,0
1718246991097943293,4207,1718246991097798711,navsat_link,0,0,39.9254520609,116.199898943,65.6426391602,0.0,0.0,0.0,0.0,0.0,0.0,0.0,0.0,0.0,0
1718246991147856322,4208,1718246991147774426,navsat_link,0,0,39.9254524996,116.199898693,65.6431045532,0.0,0.0,0.0,0.0,0.0,0.0,0.0,0.0,0.0,0
1718246991197915110,4209,1718246991197834238,navsat_link,0,0,39.9254529223,116.199898416,65.6442565918,0.0,0.0,0.0,0.0,0.0,0.0,0.0,0.0,0.0,0
1718246991248166698,4210,1718246991247935539,navsat_link,0,0,39.925453418,116.199898195,65.6415176392,0.0,0.0,0.0,0.0,0.0,0.0,0.0,0.0,0.0,0
1718246991297830991,4211,1718246991297771146,navsat_link,0,0,39.9254537873,116.199897988,65.6493606567,0.0,0.0,0.0,0.0,0.0,0.0,0.0,0.0,0.0,0
1718246991348005514,4212,1718246991347836478,navsat_link,0,0,39.9254542623,116.199897772,65.6465301514,0.0,0.0,0.0,0.0,0.0,0.0,0.0,0.0,0.0,0
1718246991397904693,4213,1718246991397838572,navsat_link,0,0,39.9254546949,116.199897533,65.645614624,0.0,0.0,0.0,0.0,0.0,0.0,0.0,0.0,0.0,0
1718246991447955686,4214,1718246991447811346,navsat_link,0,0,39.9254551727,116.199897308,65.6418685913,0.0,0.0,0.0,0.0,0.0,0.0,0.0,0.0,0.0,0
1718246991497870501,4215,1718246991497803384,navsat_link,0,0,39.9254555927,116.199896917,65.638999939,0.0,0.0,0.0,0.0,0.0,0.0,0.0,0.0,0.0,0
1718246991547884983,4216,1718246991547799884,navsat_link,0,0,39.9254560282,116.199896627,65.639251709,0.0,0.0,0.0,0.0,0.0,0.0,0.0,0.0,0.0,0
1718246991597879418,4217,1718246991597801906,navsat_link,0,0,39.925456449,116.199896316,65.6357345581,0.0,0.0,0.0,0.0,0.0,0.0,0.0,0.0,0.0,0
1718246991647845564,4218,1718246991647782945,navsat_link,0,0,39.9254568707,116.199896028,65.6320953369,0.0,0.0,0.0,0.0,0.0,0.0,0.0,0.0,0.0,0
1718246991698028927,4219,1718246991697871087,navsat_link,0,0,39.9254573573,116.199895779,65.6281356812,0.0,0.0,0.0,0.0,0.0,0.0,0.0,0.0,0.0,0
1718246991747841174,4220,1718246991747788214,navsat_link,0,0,39.9254577263,116.199895447,65.6264190674,0.0,0.0,0.0,0.0,0.0,0.0,0.0,0.0,0.0,0
1718246991797868321,4221,1718246991797798503,navsat_link,0,0,39.925458269,116.1998953,65.6282501221,0.0,0.0,0.0,0.0,0.0,0.0,0.0,0.0,0.0,0
1718246991847959515,4222,1718246991847834488,navsat_link,0,0,39.9254586511,116.199894938,65.6285629272,0.0,0.0,0.0,0.0,0.0,0.0,0.0,0.0,0.0,0
1718246991897980740,4223,1718246991897846533,navsat_link,0,0,39.9254591687,116.199894844,65.6330795288,0.0,0.0,0.0,0.0,0.0,0.0,0.0,0.0,0.0,0
1718246991947998877,4224,1718246991947801959,navsat_link,0,0,39.9254595593,116.199894509,65.6308746338,0.0,0.0,0.0,0.0,0.0,0.0,0.0,0.0,0.0,0
1718246991997853645,4225,1718246991997794427,navsat_link,0,0,39.925460133,116.199894285,65.637878418,0.0,0.0,0.0,0.0,0.0,0.0,0.0,0.0,0.0,0
1718246992047906957,4226,1718246992047813445,navsat_link,0,0,39.9254605371,116.199893927,65.6377563477,0.0,0.0,0.0,0.0,0.0,0.0,0.0,0.0,0.0,0
1718246992097847659,4227,1718246992097781425,navsat_link,0,0,39.9254611666,116.199893652,65.6271362305,0.0,0.0,0.0,0.0,0.0,0.0,0.0,0.0,0.0,0
1718246992147962459,4228,1718246992147824186,navsat_link,0,0,39.9254615494,116.199893272,65.6264343262,0.0,0.0,0.0,0.0,0.0,0.0,0.0,0.0,0.0,0
1718246992197927480,4229,1718246992197806716,navsat_link,0,0,39.9254622072,116.199892933,65.6139450073,0.0,0.0,0.0,0.0,0.0,0.0,0.0,0.0,0.0,0
1718246992248051352,4230,1718246992247850080,navsat_link,0,0,39.9254625718,116.19989255,65.6135253906,0.0,0.0,0.0,0.0,0.0,0.0,0.0,0.0,0.0,0
1718246992297884130,4231,1718246992297829064,navsat_link,0,0,39.9254632448,116.199892271,65.6155395508,0.0,0.0,0.0,0.0,0.0,0.0,0.0,0.0,0.0,0
1718246992347858348,4232,1718246992347796495,navsat_link,0,0,39.9254635943,116.199891875,65.6146850586,0.0,0.0,0.0,0.0,0.0,0.0,0.0,0.0,0.0,0
1718246992397888246,4233,1718246992397809988,navsat_link,0,0,39.9254642522,116.199891655,65.620803833,0.0,0.0,0.0,0.0,0.0,0.0,0.0,0.0,0.0,0
1718246992447879105,4234,1718246992447825820,navsat_link,0,0,39.9254646162,116.199891282,65.6195068359,0.0,0.0,0.0,0.0,0.0,0.0,0.0,0.0,0.0,0
1718246992497935543,4235,1718246992497803990,navsat_link,0,0,39.9254652552,116.199891015,65.6251068115,0.0,0.0,0.0,0.0,0.0,0.0,0.0,0.0,0.0,0
1718246992547926031,4236,1718246992547795345,navsat_link,0,0,39.925465616,116.199890626,65.6254730225,0.0,0.0,0.0,0.0,0.0,0.0,0.0,0.0,0.0,0
1718246992597992046,4237,1718246992597847143,navsat_link,0,0,39.9254662028,116.199890421,65.6172180176,0.0,0.0,0.0,0.0,0.0,0.0,0.0,0.0,0.0,0
1718246992647914366,4238,1718246992647845731,navsat_link,0,0,39.9254665794,116.199890055,65.6133575439,0.0,0.0,0.0,0.0,0.0,0.0,0.0,0.0,0.0,0
1718246992697981081,4239,1718246992697844621,navsat_link,0,0,39.9254671537,116.199889744,65.6066513062,0.0,0.0,0.0,0.0,0.0,0.0,0.0,0.0,0.0,0
1718246992747837072,4240,1718246992747774774,navsat_link,0,0,39.9254675267,116.199889352,65.6056976318,0.0,0.0,0.0,0.0,0.0,0.0,0.0,0.0,0.0,0
1718246992797880429,4241,1718246992797803123,navsat_link,0,0,39.9254681287,116.199889091,65.6013412476,0.0,0.0,0.0,0.0,0.0,0.0,0.0,0.0,0.0,0
1718246992847873178,4242,1718246992847774638,navsat_link,0,0,39.925468501,116.1998887,65.599067688,0.0,0.0,0.0,0.0,0.0,0.0,0.0,0.0,0.0,0
1718246992897879754,4243,1718246992897808640,navsat_link,0,0,39.925469226,116.199888461,65.5952377319,0.0,0.0,0.0,0.0,0.0,0.0,0.0,0.0,0.0,0
1718246992947963693,4244,1718246992947829136,navsat_link,0,0,39.9254695984,116.199888067,65.5927200317,0.0,0.0,0.0,0.0,0.0,0.0,0.0,0.0,0.0,0
1718246992997849547,4245,1718246992997794846,navsat_link,0,0,39.9254703302,116.199887841,65.5905456543,0.0,0.0,0.0,0.0,0.0,0.0,0.0,0.0,0.0,0
1718246993047975143,4246,1718246993047849610,navsat_link,0,0,39.9254707005,116.199887429,65.5909042358,0.0,0.0,0.0,0.0,0.0,0.0,0.0,0.0,0.0,0
1718246993097829925,4247,1718246993097768795,navsat_link,0,0,39.9254713904,116.199887256,65.5881729126,0.0,0.0,0.0,0.0,0.0,0.0,0.0,0.0,0.0,0
1718246993147939625,4248,1718246993147872940,navsat_link,0,0,39.9254717463,116.199886851,65.5883560181,0.0,0.0,0.0,0.0,0.0,0.0,0.0,0.0,0.0,0
1718246993197878465,4249,1718246993197804370,navsat_link,0,0,39.9254724317,116.199886631,65.5764465332,0.0,0.0,0.0,0.0,0.0,0.0,0.0,0.0,0.0,0
1718246993247869861,4250,1718246993247775908,navsat_link,0,0,39.9254728175,116.199886228,65.5740127563,0.0,0.0,0.0,0.0,0.0,0.0,0.0,0.0,0.0,0
1718246993297944295,4251,1718246993297842679,navsat_link,0,0,39.9254734419,116.199886,65.5686035156,0.0,0.0,0.0,0.0,0.0,0.0,0.0,0.0,0.0,0
1718246993347844171,4252,1718246993347792498,navsat_link,0,0,39.925473824,116.199885603,65.5659179688,0.0,0.0,0.0,0.0,0.0,0.0,0.0,0.0,0.0,0
1718246993397930541,4253,1718246993397807758,navsat_link,0,0,39.9254744882,116.199885363,65.5609130859,0.0,0.0,0.0,0.0,0.0,0.0,0.0,0.0,0.0,0
1718246993447826017,4254,1718246993447767944,navsat_link,0,0,39.9254748825,116.199884974,65.5591888428,0.0,0.0,0.0,0.0,0.0,0.0,0.0,0.0,0.0,0
1718246993497927122,4255,1718246993497812724,navsat_link,0,0,39.9254755119,116.199884735,65.5626907349,0.0,0.0,0.0,0.0,0.0,0.0,0.0,0.0,0.0,0
1718246993547835285,4256,1718246993547774140,navsat_link,0,0,39.925475913,116.199884361,65.5595092773,0.0,0.0,0.0,0.0,0.0,0.0,0.0,0.0,0.0,0
1718246993597852323,4257,1718246993597794596,navsat_link,0,0,39.9254765477,116.199884057,65.5638122559,0.0,0.0,0.0,0.0,0.0,0.0,0.0,0.0,0.0,0
1718246993647936485,4258,1718246993647795120,navsat_link,0,0,39.9254769613,116.199883666,65.5634002686,0.0,0.0,0.0,0.0,0.0,0.0,0.0,0.0,0.0,0
1718246993697847411,4259,1718246993697781883,navsat_link,0,0,39.9254775859,116.199883462,65.5551071167,0.0,0.0,0.0,0.0,0.0,0.0,0.0,0.0,0.0,0
1718246993747964890,4260,1718246993747825794,navsat_link,0,0,39.9254779674,116.199883064,65.5549468994,0.0,0.0,0.0,0.0,0.0,0.0,0.0,0.0,0.0,0
1718246993797877835,4261,1718246993797800333,navsat_link,0,0,39.9254786239,116.199882825,65.5553588867,0.0,0.0,0.0,0.0,0.0,0.0,0.0,0.0,0.0,0
1718246993847984741,4262,1718246993847825276,navsat_link,0,0,39.9254790109,116.199882427,65.5535812378,0.0,0.0,0.0,0.0,0.0,0.0,0.0,0.0,0.0,0
1718246993897851823,4263,1718246993897777539,navsat_link,0,0,39.9254796659,116.19988219,65.5560455322,0.0,0.0,0.0,0.0,0.0,0.0,0.0,0.0,0.0,0
1718246993947905992,4264,1718246993947847051,navsat_link,0,0,39.9254800762,116.199881775,65.5549545288,0.0,0.0,0.0,0.0,0.0,0.0,0.0,0.0,0.0,0
1718246993997845232,4265,1718246993997775881,navsat_link,0,0,39.925480694,116.199881628,65.5530319214,0.0,0.0,0.0,0.0,0.0,0.0,0.0,0.0,0.0,0
1718246994047880349,4266,1718246994047815564,navsat_link,0,0,39.925481079,116.199881221,65.5539474487,0.0,0.0,0.0,0.0,0.0,0.0,0.0,0.0,0.0,0
1718246994097978247,4267,1718246994097857039,navsat_link,0,0,39.9254817089,116.199881084,65.5537490845,0.0,0.0,0.0,0.0,0.0,0.0,0.0,0.0,0.0,0
1718246994147836092,4268,1718246994147770171,navsat_link,0,0,39.9254821432,116.199880694,65.5529251099,0.0,0.0,0.0,0.0,0.0,0.0,0.0,0.0,0.0,0
1718246994197965875,4269,1718246994197831633,navsat_link,0,0,39.9254827497,116.199880509,65.553352356,0.0,0.0,0.0,0.0,0.0,0.0,0.0,0.0,0.0,0
1718246994247835596,4270,1718246994247772280,navsat_link,0,0,39.925483176,116.199880099,65.5534057617,0.0,0.0,0.0,0.0,0.0,0.0,0.0,0.0,0.0,0
1718246994297959215,4271,1718246994297817096,navsat_link,0,0,39.9254838279,116.199879935,65.5449981689,0.0,0.0,0.0,0.0,0.0,0.0,0.0,0.0,0.0,0
