%time,field.header.seq,field.header.stamp,field.header.frame_id,field.status.status,field.status.service,field.latitude,field.longitude,field.altitude,field.position_covariance0,field.position_covariance1,field.position_covariance2,field.position_covariance3,field.position_covariance4,field.position_covariance5,field.position_covariance6,field.position_covariance7,field.position_covariance8,field.position_covariance_type
1718246973197759025,3849,1718246973197659566,raw_gnss,0,0,39.9253170519,116.199948354,65.3463045433,0.0,0.0,0.0,0.0,0.0,0.0,0.0,0.0,0.0,0
1718246973247974012,3850,1718246973247752729,raw_gnss,0,0,39.9253170519,116.199948354,65.3463045433,0.0,0.0,0.0,0.0,0.0,0.0,0.0,0.0,0.0,0
1718246973297999958,3851,1718246973297705879,raw_gnss,0,0,39.925317044,116.19994838,65.3497799141,0.0,0.0,0.0,0.0,0.0,0.0,0.0,0.0,0.0,0
1718246973348245722,3852,1718246973347849039,raw_gnss,0,0,39.925317044,116.19994838,65.3497799141,0.0,0.0,0.0,0.0,0.0,0.0,0.0,0.0,0.0,0
1718246973398170687,3853,1718246973397712479,raw_gnss,0,0,39.9253170357,116.199948392,65.3536797184,0.0,0.0,0.0,0.0,0.0,0.0,0.0,0.0,0.0,0
1718246973448252124,3854,1718246973447803084,raw_gnss,0,0,39.9253170357,116.199948392,65.3536797184,0.0,0.0,0.0,0.0,0.0,0.0,0.0,0.0,0.0,0
1718246973497874665,3855,1718246973497746103,raw_gnss,0,0,39.9253170292,116.199948392,65.3576220647,0.0,0.0,0.0,0.0,0.0,0.0,0.0,0.0,0.0,0
1718246973547935513,3856,1718246973547708132,raw_gnss,0,0,39.9253170292,116.199948392,65.3576220647,0.0,0.0,0.0,0.0,0.0,0.0,0.0,0.0,0.0,0
1718246973597797712,3857,1718246973597681862,raw_gnss,0,0,39.9253170292,116.199948392,65.3576220647,0.0,0.0,0.0,0.0,0.0,0.0,0.0,0.0,0.0,0
1718246973647877440,3858,1718246973647663988,raw_gnss,0,0,39.9253170283,116.199948392,65.3610849148,0.0,0.0,0.0,0.0,0.0,0.0,0.0,0.0,0.0,0
1718246973698029844,3859,1718246973697699178,raw_gnss,0,0,39.9253170322,116.199948387,65.3645019075,0.0,0.0,0.0,0.0,0.0,0.0,0.0,0.0,0.0,0
1718246973747906162,3860,1718246973747695910,raw_gnss,0,0,39.9253170322,116.199948387,65.3645019075,0.0,0.0,0.0,0.0,0.0,0.0,0.0,0.0,0.0,0
1718246973797981708,3861,1718246973797821899,raw_gnss,0,0,39.9253170313,116.199948379,65.3676144164,0.0,0.0,0.0,0.0,0.0,0.0,0.0,0.0,0.0,0
1718246973847998285,3862,1718246973847755295,raw_gnss,0,0,39.9253170313,116.199948379,65.3676144164,0.0,0.0,0.0,0.0,0.0,0.0,0.0,0.0,0.0,0
1718246973897982964,3863,1718246973897689677,raw_gnss,0,0,39.9253170363,116.199948371,65.371032021,0.0,0.0,0.0,0.0,0.0,0.0,0.0,0.0,0.0,0
1718246973948059462,3864,1718246973947768507,raw_gnss,0,0,39.9253170363,116.199948371,65.371032021,0.0,0.0,0.0,0.0,0.0,0.0,0.0,0.0,0.0,0
1718246973997801649,3865,1718246973997674764,raw_gnss,0,0,39.9253170438,116.199948369,65.3742226595,0.0,0.0,0.0,0.0,0.0,0.0,0.0,0.0,0.0,0
1718246974048099032,3866,1718246974047831224,raw_gnss,0,0,39.9253170438,116.199948369,65.3742226595,0.0,0.0,0.0,0.0,0.0,0.0,0.0,0.0,0.0,0
1718246974098005566,3867,1718246974097729722,raw_gnss,0,0,39.925317048,116.199948372,65.3775766576,0.0,0.0,0.0,0.0,0.0,0.0,0.0,0.0,0.0,0
1718246974148193707,3868,1718246974147795577,raw_gnss,0,0,39.925317048,116.199948372,65.3775766576,0.0,0.0,0.0,0.0,0.0,0.0,0.0,0.0,0.0,0
1718246974198083498,3869,1718246974197716420,raw_gnss,0,0,39.9253170604,116.199948377,65.3813068513,0.0,0.0,0.0,0.0,0.0,0.0,0.0,0.0,0.0,0
1718246974247724369,3870,1718246974247629770,raw_gnss,0,0,39.9253170604,116.199948377,65.3813068513,0.0,0.0,0.0,0.0,0.0,0.0,0.0,0.0,0.0,0
1718246974297958285,3871,1718246974297688312,raw_gnss,0,0,39.9253170722,116.199948389,65.3840693086,0.0,0.0,0.0,0.0,0.0,0.0,0.0,0.0,0.0,0
1718246974348153539,3872,1718246974347738278,raw_gnss,0,0,39.9253170722,116.199948389,65.3840693086,0.0,0.0,0.0,0.0,0.0,0.0,0.0,0.0,0.0,0
1718246974398217143,3873,1718246974397688805,raw_gnss,0,0,39.9253170785,116.199948403,65.3868225645,0.0,0.0,0.0,0.0,0.0,0.0,0.0,0.0,0.0,0
1718246974447915094,3874,1718246974447725782,raw_gnss,0,0,39.9253170785,116.199948403,65.3868225645,0.0,0.0,0.0,0.0,0.0,0.0,0.0,0.0,0.0,0
1718246974497887169,3875,1718246974497740057,raw_gnss,0,0,39.9253170785,116.199948403,65.3868225645,0.0,0.0,0.0,0.0,0.0,0.0,0.0,0.0,0.0,0
1718246974547939205,3876,1718246974547782008,raw_gnss,0,0,39.9253170892,116.199948438,65.3886765251,0.0,0.0,0.0,0.0,0.0,0.0,0.0,0.0,0.0,0
1718246974597766009,3877,1718246974597638141,raw_gnss,0,0,39.9253170892,116.199948438,65.3886765251,0.0,0.0,0.0,0.0,0.0,0.0,0.0,0.0,0.0,0
1718246974647763674,3878,1718246974647654860,raw_gnss,0,0,39.9253170986,116.199948479,65.3902725456,0.0,0.0,0.0,0.0,0.0,0.0,0.0,0.0,0.0,0
1718246974697733185,3879,1718246974697662404,raw_gnss,0,0,39.9253171068,116.199948516,65.3917991444,0.0,0.0,0.0,0.0,0.0,0.0,0.0,0.0,0.0,0
1718246974748030984,3880,1718246974747795249,raw_gnss,0,0,39.9253171068,116.199948516,65.3917991444,0.0,0.0,0.0,0.0,0.0,0.0,0.0,0.0,0.0,0
1718246974797725693,3881,1718246974797624716,raw_gnss,0,0,39.9253171117,116.199948546,65.3930672603,0.0,0.0,0.0,0.0,0.0,0.0,0.0,0.0,0.0,0
1718246974847936528,3882,1718246974847739246,raw_gnss,0,0,39.9253171117,116.199948546,65.3930672603,0.0,0.0,0.0,0.0,0.0,0.0,0.0,0.0,0.0,0
1718246974897922204,3883,1718246974897688541,raw_gnss,0,0,39.9253171152,116.19994857,65.3941601738,0.0,0.0,0.0,0.0,0.0,0.0,0.0,0.0,0.0,0
1718246974947964947,3884,1718246974947808982,raw_gnss,0,0,39.9253171152,116.19994857,65.3941601738,0.0,0.0,0.0,0.0,0.0,0.0,0.0,0.0,0.0,0
1718246974998116805,3885,1718246974997768907,raw_gnss,0,0,39.9253171148,116.199948593,65.3949503982,0.0,0.0,0.0,0.0,0.0,0.0,0.0,0.0,0.0,0
1718246975048183443,3886,1718246975047714132,raw_gnss,0,0,39.9253171148,116.199948593,65.3949503982,0.0,0.0,0.0,0.0,0.0,0.0,0.0,0.0,0.0,0
1718246975097960038,3887,1718246975097675598,raw_gnss,0,0,39.9253171147,116.199948612,65.3955915691,0.0,0.0,0.0,0.0,0.0,0.0,0.0,0.0,0.0,0
1718246975147973900,3888,1718246975147826482,raw_gnss,0,0,39.9253171147,116.199948612,65.3955915691,0.0,0.0,0.0,0.0,0.0,0.0,0.0,0.0,0.0,0
1718246975197894487,3889,1718246975197736706,raw_gnss,0,0,39.9253171119,116.199948629,65.3963376302,0.0,0.0,0.0,0.0,0.0,0.0,0.0,0.0,0.0,0
1718246975247934528,3890,1718246975247679113,raw_gnss,0,0,39.9253171119,116.199948629,65.3963376302,0.0,0.0,0.0,0.0,0.0,0.0,0.0,0.0,0.0,0
1718246975297997353,3891,1718246975297704764,raw_gnss,0,0,39.9253171109,116.199948642,65.3969218135,0.0,0.0,0.0,0.0,0.0,0.0,0.0,0.0,0.0,0
1718246975347897820,3892,1718246975347784217,raw_gnss,0,0,39.9253171109,116.199948642,65.3969218135,0.0,0.0,0.0,0.0,0.0,0.0,0.0,0.0,0.0,0
1718246975397976216,3893,1718246975397800449,raw_gnss,0,0,39.9253171053,116.199948657,65.3973842086,0.0,0.0,0.0,0.0,0.0,0.0,0.0,0.0,0.0,0
1718246975447881598,3894,1718246975447720440,raw_gnss,0,0,39.9253171053,116.199948657,65.3973842086,0.0,0.0,0.0,0.0,0.0,0.0,0.0,0.0,0.0,0
1718246975497798183,3895,1718246975497675004,raw_gnss,0,0,39.9253170983,116.199948674,65.39780897,0.0,0.0,0.0,0.0,0.0,0.0,0.0,0.0,0.0,0
1718246975547787791,3896,1718246975547684424,raw_gnss,0,0,39.9253170983,116.199948674,65.39780897,0.0,0.0,0.0,0.0,0.0,0.0,0.0,0.0,0.0,0
1718246975597951033,3897,1718246975597688315,raw_gnss,0,0,39.9253170983,116.199948674,65.39780897,0.0,0.0,0.0,0.0,0.0,0.0,0.0,0.0,0.0,0
1718246975647946998,3898,1718246975647745752,raw_gnss,0,0,39.9253170911,116.199948691,65.3982433481,0.0,0.0,0.0,0.0,0.0,0.0,0.0,0.0,0.0,0
1718246975698376994,3899,1718246975697746225,raw_gnss,0,0,39.9253170847,116.199948707,65.3987466674,0.0,0.0,0.0,0.0,0.0,0.0,0.0,0.0,0.0,0
1718246975748157918,3900,1718246975747770273,raw_gnss,0,0,39.9253170847,116.199948707,65.3987466674,0.0,0.0,0.0,0.0,0.0,0.0,0.0,0.0,0.0,0
1718246975797732217,3901,1718246975797601932,raw_gnss,0,0,39.9253170847,116.199948707,65.3987466674,0.0,0.0,0.0,0.0,0.0,0.0,0.0,0.0,0.0,0
1718246975847935915,3902,1718246975847781536,raw_gnss,0,0,39.925317078,116.199948729,65.3993065469,0.0,0.0,0.0,0.0,0.0,0.0,0.0,0.0,0.0,0
1718246975898098129,3903,1718246975897826884,raw_gnss,0,0,39.9253170727,116.199948749,65.3998605628,0.0,0.0,0.0,0.0,0.0,0.0,0.0,0.0,0.0,0
1718246975948317757,3904,1718246975947807619,raw_gnss,0,0,39.9253170727,116.199948749,65.3998605628,0.0,0.0,0.0,0.0,0.0,0.0,0.0,0.0,0.0,0
1718246975998071563,3905,1718246975997727029,raw_gnss,0,0,39.9253170727,116.199948749,65.3998605628,0.0,0.0,0.0,0.0,0.0,0.0,0.0,0.0,0.0,0
1718246976048179372,3906,1718246976047788183,raw_gnss,0,0,39.9253170696,116.199948763,65.400429667,0.0,0.0,0.0,0.0,0.0,0.0,0.0,0.0,0.0,0
1718246976098006358,3907,1718246976097712356,raw_gnss,0,0,39.9253170677,116.199948775,65.4011421762,0.0,0.0,0.0,0.0,0.0,0.0,0.0,0.0,0.0,0
1718246976148066922,3908,1718246976147723605,raw_gnss,0,0,39.9253170677,116.199948775,65.4011421762,0.0,0.0,0.0,0.0,0.0,0.0,0.0,0.0,0.0,0
1718246976197983265,3909,1718246976197724475,raw_gnss,0,0,39.9253170668,116.199948786,65.4018699033,0.0,0.0,0.0,0.0,0.0,0.0,0.0,0.0,0.0,0
1718246976248105742,3910,1718246976247759338,raw_gnss,0,0,39.9253170668,116.199948786,65.4018699033,0.0,0.0,0.0,0.0,0.0,0.0,0.0,0.0,0.0,0
1718246976298044166,3911,1718246976297744595,raw_gnss,0,0,39.925317069,116.199948794,65.4026483167,0.0,0.0,0.0,0.0,0.0,0.0,0.0,0.0,0.0,0
1718246976348103272,3912,1718246976347755479,raw_gnss,0,0,39.925317069,116.199948794,65.4026483167,0.0,0.0,0.0,0.0,0.0,0.0,0.0,0.0,0.0,0
1718246976397785513,3913,1718246976397705486,raw_gnss,0,0,39.925317071,116.199948802,65.4033725485,0.0,0.0,0.0,0.0,0.0,0.0,0.0,0.0,0.0,0
1718246976448061780,3914,1718246976447831179,raw_gnss,0,0,39.925317071,116.199948802,65.4033725485,0.0,0.0,0.0,0.0,0.0,0.0,0.0,0.0,0.0,0
1718246976498003614,3915,1718246976497696070,raw_gnss,0,0,39.9253170719,116.199948809,65.4040391464,0.0,0.0,0.0,0.0,0.0,0.0,0.0,0.0,0.0,0
1718246976548226278,3916,1718246976547815334,raw_gnss,0,0,39.9253170719,116.199948809,65.4040391464,0.0,0.0,0.0,0.0,0.0,0.0,0.0,0.0,0.0,0
1718246976598098639,3917,1718246976597731825,raw_gnss,0,0,39.9253170719,116.199948809,65.4040391464,0.0,0.0,0.0,0.0,0.0,0.0,0.0,0.0,0.0,0
1718246976648375680,3918,1718246976647820210,raw_gnss,0,0,39.9253170657,116.19994882,65.4044999434,0.0,0.0,0.0,0.0,0.0,0.0,0.0,0.0,0.0,0
1718246976698051372,3919,1718246976697762235,raw_gnss,0,0,39.9253170594,116.199948829,65.4049382089,0.0,0.0,0.0,0.0,0.0,0.0,0.0,0.0,0.0,0
1718246976748263228,3920,1718246976747771508,raw_gnss,0,0,39.9253170594,116.199948829,65.4049382089,0.0,0.0,0.0,0.0,0.0,0.0,0.0,0.0,0.0,0
1718246976797989530,3921,1718246976797710239,raw_gnss,0,0,39.925317053,116.199948838,65.4054078106,0.0,0.0,0.0,0.0,0.0,0.0,0.0,0.0,0.0,0
1718246976847984271,3922,1718246976847767568,raw_gnss,0,0,39.925317053,116.199948838,65.4054078106,0.0,0.0,0.0,0.0,0.0,0.0,0.0,0.0,0.0,0
1718246976897927186,3923,1718246976897771176,raw_gnss,0,0,39.9253170463,116.199948848,65.4058658592,0.0,0.0,0.0,0.0,0.0,0.0,0.0,0.0,0.0,0
1718246976947852764,3924,1718246976947692393,raw_gnss,0,0,39.9253170463,116.199948848,65.4058658592,0.0,0.0,0.0,0.0,0.0,0.0,0.0,0.0,0.0,0
1718246976997914404,3925,1718246976997752067,raw_gnss,0,0,39.9253170401,116.199948857,65.4063448152,0.0,0.0,0.0,0.0,0.0,0.0,0.0,0.0,0.0,0
1718246977047923064,3926,1718246977047748910,raw_gnss,0,0,39.9253170401,116.199948857,65.4063448152,0.0,0.0,0.0,0.0,0.0,0.0,0.0,0.0,0.0,0
1718246977097944526,3927,1718246977097681704,raw_gnss,0,0,39.9253172238,116.199948829,65.407040365,0.0,0.0,0.0,0.0,0.0,0.0,0.0,0.0,0.0,0
1718246977148172542,3928,1718246977147769510,raw_gnss,0,0,39.9253172238,116.199948829,65.407040365,0.0,0.0,0.0,0.0,0.0,0.0,0.0,0.0,0.0,0
1718246977198073721,3929,1718246977197782660,raw_gnss,0,0,39.9253174881,116.199948805,65.4097376671,0.0,0.0,0.0,0.0,0.0,0.0,0.0,0.0,0.0,0
1718246977248146970,3930,1718246977247762915,raw_gnss,0,0,39.9253174881,116.199948805,65.4097376671,0.0,0.0,0.0,0.0,0.0,0.0,0.0,0.0,0.0,0
1718246977298067253,3931,1718246977297726084,raw_gnss,0,0,39.9253178034,116.199948797,65.4153644331,0.0,0.0,0.0,0.0,0.0,0.0,0.0,0.0,0.0,0
1718246977348093862,3932,1718246977347718528,raw_gnss,0,0,39.9253178034,116.199948797,65.4153644331,0.0,0.0,0.0,0.0,0.0,0.0,0.0,0.0,0.0,0
1718246977398095481,3933,1718246977397706263,raw_gnss,0,0,39.9253181482,116.199948811,65.4214458382,0.0,0.0,0.0,0.0,0.0,0.0,0.0,0.0,0.0,0
1718246977447995790,3934,1718246977447779273,raw_gnss,0,0,39.9253181482,116.199948811,65.4214458382,0.0,0.0,0.0,0.0,0.0,0.0,0.0,0.0,0.0,0
1718246977497777259,3935,1718246977497662667,raw_gnss,0,0,39.9253185611,116.199948789,65.424522059,0.0,0.0,0.0,0.0,0.0,0.0,0.0,0.0,0.0,0
1718246977547973025,3936,1718246977547816215,raw_gnss,0,0,39.9253185611,116.199948789,65.424522059,0.0,0.0,0.0,0.0,0.0,0.0,0.0,0.0,0.0,0
1718246977597831741,3937,1718246977597708322,raw_gnss,0,0,39.9253185611,116.199948789,65.424522059,0.0,0.0,0.0,0.0,0.0,0.0,0.0,0.0,0.0,0
1718246977647944367,3938,1718246977647734830,raw_gnss,0,0,39.9253190605,116.19994879,65.4270656575,0.0,0.0,0.0,0.0,0.0,0.0,0.0,0.0,0.0,0
1718246977697796695,3939,1718246977697676647,raw_gnss,0,0,39.9253196494,116.19994882,65.4254400488,0.0,0.0,0.0,0.0,0.0,0.0,0.0,0.0,0.0,0
1718246977747966296,3940,1718246977747810236,raw_gnss,0,0,39.9253196494,116.19994882,65.4254400488,0.0,0.0,0.0,0.0,0.0,0.0,0.0,0.0,0.0,0
1718246977797953880,3941,1718246977797785979,raw_gnss,0,0,39.9253202254,116.199948773,65.4290719414,0.0,0.0,0.0,0.0,0.0,0.0,0.0,0.0,0.0,0
1718246977848184211,3942,1718246977847799660,raw_gnss,0,0,39.9253202254,116.199948773,65.4290719414,0.0,0.0,0.0,0.0,0.0,0.0,0.0,0.0,0.0,0
1718246977898056447,3943,1718246977897740526,raw_gnss,0,0,39.9253208307,116.199948709,65.4328069016,0.0,0.0,0.0,0.0,0.0,0.0,0.0,0.0,0.0,0
1718246977947905038,3944,1718246977947687498,raw_gnss,0,0,39.9253208307,116.199948709,65.4328069016,0.0,0.0,0.0,0.0,0.0,0.0,0.0,0.0,0.0,0
1718246977997846804,3945,1718246977997663553,raw_gnss,0,0,39.925321446,116.199948626,65.4351246059,0.0,0.0,0.0,0.0,0.0,0.0,0.0,0.0,0.0,0
1718246978047814395,3946,1718246978047663710,raw_gnss,0,0,39.925321446,116.199948626,65.4351246059,0.0,0.0,0.0,0.0,0.0,0.0,0.0,0.0,0.0,0
1718246978098041431,3947,1718246978097774512,raw_gnss,0,0,39.925322028,116.199948526,65.4412849965,0.0,0.0,0.0,0.0,0.0,0.0,0.0,0.0,0.0,0
1718246978148086584,3948,1718246978147734947,raw_gnss,0,0,39.925322028,116.199948526,65.4412849965,0.0,0.0,0.0,0.0,0.0,0.0,0.0,0.0,0.0,0
1718246978198061219,3949,1718246978197772722,raw_gnss,0,0,39.9253225891,116.199948357,65.4532799376,0.0,0.0,0.0,0.0,0.0,0.0,0.0,0.0,0.0,0
1718246978247959404,3950,1718246978247785150,raw_gnss,0,0,39.9253225891,116.199948357,65.4532799376,0.0,0.0,0.0,0.0,0.0,0.0,0.0,0.0,0.0,0
1718246978298540742,3951,1718246978297725657,raw_gnss,0,0,39.9253225891,116.199948357,65.4532799376,0.0,0.0,0.0,0.0,0.0,0.0,0.0,0.0,0.0,0
1718246978348161129,3952,1718246978347795336,raw_gnss,0,0,39.9253230492,116.199948092,65.4776761755,0.0,0.0,0.0,0.0,0.0,0.0,0.0,0.0,0.0,0
1718246978398074613,3953,1718246978397762992,raw_gnss,0,0,39.9253236814,116.199947904,65.4898082344,0.0,0.0,0.0,0.0,0.0,0.0,0.0,0.0,0.0,0
1718246978447922351,3954,1718246978447739432,raw_gnss,0,0,39.9253236814,116.199947904,65.4898082344,0.0,0.0,0.0,0.0,0.0,0.0,0.0,0.0,0.0,0
1718246978497901233,3955,1718246978497704011,raw_gnss,0,0,39.9253243707,116.199947865,65.4921588032,0.0,0.0,0.0,0.0,0.0,0.0,0.0,0.0,0.0,0
1718246978547994980,3956,1718246978547750244,raw_gnss,0,0,39.9253243707,116.199947865,65.4921588032,0.0,0.0,0.0,0.0,0.0,0.0,0.0,0.0,0.0,0
1718246978598369688,3957,1718246978597763466,raw_gnss,0,0,39.9253243707,116.199947865,65.4921588032,0.0,0.0,0.0,0.0,0.0,0.0,0.0,0.0,0.0,0
1718246978647736603,3958,1718246978647634206,raw_gnss,0,0,39.9253250683,116.199947899,65.4911126569,0.0,0.0,0.0,0.0,0.0,0.0,0.0,0.0,0.0,0
1718246978697851608,3959,1718246978697705501,raw_gnss,0,0,39.9253257928,116.199947933,65.4888403937,0.0,0.0,0.0,0.0,0.0,0.0,0.0,0.0,0.0,0
1718246978747819279,3960,1718246978747688879,raw_gnss,0,0,39.9253257928,116.199947933,65.4888403937,0.0,0.0,0.0,0.0,0.0,0.0,0.0,0.0,0.0,0
1718246978797832326,3961,1718246978797631790,raw_gnss,0,0,39.925326536,116.199947856,65.4872049987,0.0,0.0,0.0,0.0,0.0,0.0,0.0,0.0,0.0,0
1718246978847936483,3962,1718246978847764063,raw_gnss,0,0,39.925326536,116.199947856,65.4872049987,0.0,0.0,0.0,0.0,0.0,0.0,0.0,0.0,0.0,0
1718246978898062509,3963,1718246978897697084,raw_gnss,0,0,39.9253272868,116.199947722,65.4882166535,0.0,0.0,0.0,0.0,0.0,0.0,0.0,0.0,0.0,0
1718246978948343435,3964,1718246978947830155,raw_gnss,0,0,39.9253272868,116.199947722,65.4882166535,0.0,0.0,0.0,0.0,0.0,0.0,0.0,0.0,0.0,0
1718246978998223628,3965,1718246978997785840,raw_gnss,0,0,39.9253280925,116.199947668,65.4893917711,0.0,0.0,0.0,0.0,0.0,0.0,0.0,0.0,0.0,0
1718246979048374908,3966,1718246979047788507,raw_gnss,0,0,39.9253280925,116.199947668,65.4893917711,0.0,0.0,0.0,0.0,0.0,0.0,0.0,0.0,0.0,0
1718246979098065963,3967,1718246979097701891,raw_gnss,0,0,39.9253289165,116.199947601,65.495124964,0.0,0.0,0.0,0.0,0.0,0.0,0.0,0.0,0.0,0
1718246979148137913,3968,1718246979147828843,raw_gnss,0,0,39.9253289165,116.199947601,65.495124964,0.0,0.0,0.0,0.0,0.0,0.0,0.0,0.0,0.0,0
1718246979198086676,3969,1718246979197754019,raw_gnss,0,0,39.9253297956,116.199947503,65.512931467,0.0,0.0,0.0,0.0,0.0,0.0,0.0,0.0,0.0,0
1718246979248016153,3970,1718246979247720349,raw_gnss,0,0,39.9253297956,116.199947503,65.512931467,0.0,0.0,0.0,0.0,0.0,0.0,0.0,0.0,0.0,0
1718246979297829960,3971,1718246979297699479,raw_gnss,0,0,39.9253306532,116.199947369,65.5317595033,0.0,0.0,0.0,0.0,0.0,0.0,0.0,0.0,0.0,0
1718246979347920730,3972,1718246979347768877,raw_gnss,0,0,39.9253306532,116.199947369,65.5317595033,0.0,0.0,0.0,0.0,0.0,0.0,0.0,0.0,0.0,0
1718246979397905841,3973,1718246979397760950,raw_gnss,0,0,39.9253314746,116.199947187,65.5535047883,0.0,0.0,0.0,0.0,0.0,0.0,0.0,0.0,0.0,0
1718246979447927160,3974,1718246979447805176,raw_gnss,0,0,39.9253314746,116.199947187,65.5535047883,0.0,0.0,0.0,0.0,0.0,0.0,0.0,0.0,0.0,0
1718246979498041652,3975,1718246979497698418,raw_gnss,0,0,39.9253324094,116.199947136,65.5626502084,0.0,0.0,0.0,0.0,0.0,0.0,0.0,0.0,0.0,0
1718246979548271266,3976,1718246979547826340,raw_gnss,0,0,39.9253324094,116.199947136,65.5626502084,0.0,0.0,0.0,0.0,0.0,0.0,0.0,0.0,0.0,0
1718246979598074142,3977,1718246979597765092,raw_gnss,0,0,39.9253324094,116.199947136,65.5626502084,0.0,0.0,0.0,0.0,0.0,0.0,0.0,0.0,0.0,0
1718246979648071767,3978,1718246979647799977,raw_gnss,0,0,39.9253333646,116.199947029,65.5719135925,0.0,0.0,0.0,0.0,0.0,0.0,0.0,0.0,0.0,0
1718246979698185218,3979,1718246979697734334,raw_gnss,0,0,39.9253344319,116.199946963,65.5708687808,0.0,0.0,0.0,0.0,0.0,0.0,0.0,0.0,0.0,0
1718246979748295505,3980,1718246979747844803,raw_gnss,0,0,39.9253344319,116.199946963,65.5708687808,0.0,0.0,0.0,0.0,0.0,0.0,0.0,0.0,0.0,0
1718246979798066257,3981,1718246979797702502,raw_gnss,0,0,39.925335591,116.199947021,65.5597949931,0.0,0.0,0.0,0.0,0.0,0.0,0.0,0.0,0.0,0
1718246979848246796,3982,1718246979847840324,raw_gnss,0,0,39.925335591,116.199947021,65.5597949931,0.0,0.0,0.0,0.0,0.0,0.0,0.0,0.0,0.0,0
1718246979898015070,3983,1718246979897727104,raw_gnss,0,0,39.9253366658,116.199947176,65.5632416187,0.0,0.0,0.0,0.0,0.0,0.0,0.0,0.0,0.0,0
1718246979948173451,3984,1718246979947823034,raw_gnss,0,0,39.9253366658,116.199947176,65.5632416187,0.0,0.0,0.0,0.0,0.0,0.0,0.0,0.0,0.0,0
1718246979997840047,3985,1718246979997738919,raw_gnss,0,0,39.9253376671,116.19994737,65.5674781557,0.0,0.0,0.0,0.0,0.0,0.0,0.0,0.0,0.0,0
1718246980047824287,3986,1718246980047693394,raw_gnss,0,0,39.9253376671,116.19994737,65.5674781557,0.0,0.0,0.0,0.0,0.0,0.0,0.0,0.0,0.0,0
1718246980097790718,3987,1718246980097735665,raw_gnss,0,0,39.9253385698,116.199947408,65.581420118,0.0,0.0,0.0,0.0,0.0,0.0,0.0,0.0,0.0,0
1718246980147887672,3988,1718246980147716804,raw_gnss,0,0,39.9253385698,116.199947408,65.581420118,0.0,0.0,0.0,0.0,0.0,0.0,0.0,0.0,0.0,0
1718246980197802473,3989,1718246980197690509,raw_gnss,0,0,39.9253394729,116.199947407,65.5911484119,0.0,0.0,0.0,0.0,0.0,0.0,0.0,0.0,0.0,0
1718246980247982305,3990,1718246980247813361,raw_gnss,0,0,39.9253394729,116.199947407,65.5911484119,0.0,0.0,0.0,0.0,0.0,0.0,0.0,0.0,0.0,0
1718246980298079883,3991,1718246980297808991,raw_gnss,0,0,39.9253404656,116.199947295,65.5957412925,0.0,0.0,0.0,0.0,0.0,0.0,0.0,0.0,0.0,0
1718246980347808037,3992,1718246980347669586,raw_gnss,0,0,39.9253404656,116.199947295,65.5957412925,0.0,0.0,0.0,0.0,0.0,0.0,0.0,0.0,0.0,0
1718246980397895667,3993,1718246980397713918,raw_gnss,0,0,39.9253414546,116.199947322,65.612908178,0.0,0.0,0.0,0.0,0.0,0.0,0.0,0.0,0.0,0
1718246980448077385,3994,1718246980447743912,raw_gnss,0,0,39.9253414546,116.199947322,65.612908178,0.0,0.0,0.0,0.0,0.0,0.0,0.0,0.0,0.0,0
1718246980498055086,3995,1718246980497809224,raw_gnss,0,0,39.9253423138,116.19994728,65.6267388714,0.0,0.0,0.0,0.0,0.0,0.0,0.0,0.0,0.0,0
1718246980547796195,3996,1718246980547685281,raw_gnss,0,0,39.9253423138,116.19994728,65.6267388714,0.0,0.0,0.0,0.0,0.0,0.0,0.0,0.0,0.0,0
1718246980597679811,3997,1718246980597626584,raw_gnss,0,0,39.9253423138,116.19994728,65.6267388714,0.0,0.0,0.0,0.0,0.0,0.0,0.0,0.0,0.0,0
1718246980647893782,3998,1718246980647686116,raw_gnss,0,0,39.9253431858,116.199947218,65.6229644641,0.0,0.0,0.0,0.0,0.0,0.0,0.0,0.0,0.0,0
1718246980697784601,3999,1718246980697690743,raw_gnss,0,0,39.9253440165,116.199947141,65.6220097272,0.0,0.0,0.0,0.0,0.0,0.0,0.0,0.0,0.0,0
1718246980747999024,4000,1718246980747792386,raw_gnss,0,0,39.9253440165,116.199947141,65.6220097272,0.0,0.0,0.0,0.0,0.0,0.0,0.0,0.0,0.0,0
1718246980798188569,4001,1718246980797868795,raw_gnss,0,0,39.9253447695,116.19994704,65.613773576,0.0,0.0,0.0,0.0,0.0,0.0,0.0,0.0,0.0,0
1718246980848141850,4002,1718246980847810950,raw_gnss,0,0,39.9253447695,116.19994704,65.613773576,0.0,0.0,0.0,0.0,0.0,0.0,0.0,0.0,0.0,0
1718246980898405097,4003,1718246980897951490,raw_gnss,0,0,39.9253455437,116.199946794,65.6134698028,0.0,0.0,0.0,0.0,0.0,0.0,0.0,0.0,0.0,0
1718246980948043452,4004,1718246980947773876,raw_gnss,0,0,39.9253455437,116.199946794,65.6134698028,0.0,0.0,0.0,0.0,0.0,0.0,0.0,0.0,0.0,0
1718246980998055984,4005,1718246980997745281,raw_gnss,0,0,39.925346418,116.19994668,65.6088242764,0.0,0.0,0.0,0.0,0.0,0.0,0.0,0.0,0.0,0
1718246981048200557,4006,1718246981047927269,raw_gnss,0,0,39.925346418,116.19994668,65.6088242764,0.0,0.0,0.0,0.0,0.0,0.0,0.0,0.0,0.0,0
1718246981098060611,4007,1718246981097775985,raw_gnss,0,0,39.9253474148,116.199946553,65.6138152704,0.0,0.0,0.0,0.0,0.0,0.0,0.0,0.0,0.0,0
1718246981148116480,4008,1718246981147783257,raw_gnss,0,0,39.9253474148,116.199946553,65.6138152704,0.0,0.0,0.0,0.0,0.0,0.0,0.0,0.0,0.0,0
1718246981198081256,4009,1718246981197749412,raw_gnss,0,0,39.9253483738,116.199946394,65.6229327777,0.0,0.0,0.0,0.0,0.0,0.0,0.0,0.0,0.0,0
1718246981248337365,4010,1718246981247875538,raw_gnss,0,0,39.9253483738,116.199946394,65.6229327777,0.0,0.0,0.0,0.0,0.0,0.0,0.0,0.0,0.0,0
1718246981298045354,4011,1718246981297738427,raw_gnss,0,0,39.9253493502,116.199946178,65.6322206482,0.0,0.0,0.0,0.0,0.0,0.0,0.0,0.0,0.0,0
1718246981348176187,4012,1718246981347775387,raw_gnss,0,0,39.9253493502,116.199946178,65.6322206482,0.0,0.0,0.0,0.0,0.0,0.0,0.0,0.0,0.0,0
1718246981398335727,4013,1718246981397896518,raw_gnss,0,0,39.9253493502,116.199946178,65.6322206482,0.0,0.0,0.0,0.0,0.0,0.0,0.0,0.0,0.0,0
1718246981448375889,4014,1718246981447937175,raw_gnss,0,0,39.9253504731,116.199945873,65.6423136024,0.0,0.0,0.0,0.0,0.0,0.0,0.0,0.0,0.0,0
1718246981498019981,4015,1718246981497738064,raw_gnss,0,0,39.9253515976,116.199945522,65.6520563923,0.0,0.0,0.0,0.0,0.0,0.0,0.0,0.0,0.0,0
1718246981548354625,4016,1718246981547965842,raw_gnss,0,0,39.9253515976,116.199945522,65.6520563923,0.0,0.0,0.0,0.0,0.0,0.0,0.0,0.0,0.0,0
1718246981598135911,4017,1718246981597803649,raw_gnss,0,0,39.9253515976,116.199945522,65.6520563923,0.0,0.0,0.0,0.0,0.0,0.0,0.0,0.0,0.0,0
1718246981648352726,4018,1718246981647906562,raw_gnss,0,0,39.9253527631,116.199945266,65.6586128613,0.0,0.0,0.0,0.0,0.0,0.0,0.0,0.0,0.0,0
1718246981698199260,4019,1718246981697807801,raw_gnss,0,0,39.9253538515,116.199945071,65.6667457791,0.0,0.0,0.0,0.0,0.0,0.0,0.0,0.0,0.0,0
1718246981748141364,4020,1718246981747879210,raw_gnss,0,0,39.9253538515,116.199945071,65.6667457791,0.0,0.0,0.0,0.0,0.0,0.0,0.0,0.0,0.0,0
1718246981798360591,4021,1718246981797928628,raw_gnss,0,0,39.92535495,116.199944842,65.6708799778,0.0,0.0,0.0,0.0,0.0,0.0,0.0,0.0,0.0,0
1718246981848360692,4022,1718246981847844524,raw_gnss,0,0,39.92535495,116.199944842,65.6708799778,0.0,0.0,0.0,0.0,0.0,0.0,0.0,0.0,0.0,0
1718246981898023854,4023,1718246981897743981,raw_gnss,0,0,39.92535495,116.199944842,65.6708799778,0.0,0.0,0.0,0.0,0.0,0.0,0.0,0.0,0.0,0
1718246981948148659,4024,1718246981947745009,raw_gnss,0,0,39.925356064,116.199944671,65.6707481164,0.0,0.0,0.0,0.0,0.0,0.0,0.0,0.0,0.0,0
1718246981998075527,4025,1718246981997742126,raw_gnss,0,0,39.9253571303,116.199944451,65.6702550873,0.0,0.0,0.0,0.0,0.0,0.0,0.0,0.0,0.0,0
1718246982048126782,4026,1718246982047796652,raw_gnss,0,0,39.9253571303,116.199944451,65.6702550873,0.0,0.0,0.0,0.0,0.0,0.0,0.0,0.0,0.0,0
1718246982098228520,4027,1718246982097881929,raw_gnss,0,0,39.9253571303,116.199944451,65.6702550873,0.0,0.0,0.0,0.0,0.0,0.0,0.0,0.0,0.0,0
1718246982148288540,4028,1718246982148014495,raw_gnss,0,0,39.9253581654,116.199944187,65.6687767394,0.0,0.0,0.0,0.0,0.0,0.0,0.0,0.0,0.0,0
1718246982197772854,4029,1718246982197703624,raw_gnss,0,0,39.9253592273,116.199943994,65.6704414226,0.0,0.0,0.0,0.0,0.0,0.0,0.0,0.0,0.0,0
1718246982248057609,4030,1718246982247756798,raw_gnss,0,0,39.9253592273,116.199943994,65.6704414226,0.0,0.0,0.0,0.0,0.0,0.0,0.0,0.0,0.0,0
1718246982298048107,4031,1718246982297742317,raw_gnss,0,0,39.9253603118,116.199943785,65.6726064421,0.0,0.0,0.0,0.0,0.0,0.0,0.0,0.0,0.0,0
1718246982348239813,4032,1718246982347808562,raw_gnss,0,0,39.9253603118,116.199943785,65.6726064421,0.0,0.0,0.0,0.0,0.0,0.0,0.0,0.0,0.0,0
1718246982398220002,4033,1718246982397845017,raw_gnss,0,0,39.9253603118,116.199943785,65.6726064421,0.0,0.0,0.0,0.0,0.0,0.0,0.0,0.0,0.0,0
1718246982448373793,4034,1718246982447906168,raw_gnss,0,0,39.9253615092,116.199943596,65.6830132222,0.0,0.0,0.0,0.0,0.0,0.0,0.0,0.0,0.0,0
1718246982497848066,4035,1718246982497765627,raw_gnss,0,0,39.9253615092,116.199943596,65.6830132222,0.0,0.0,0.0,0.0,0.0,0.0,0.0,0.0,0.0,0
1718246982548017322,4036,1718246982547869233,raw_gnss,0,0,39.9253627811,116.19994341,65.6659631915,0.0,0.0,0.0,0.0,0.0,0.0,0.0,0.0,0.0,0
1718246982597888101,4037,1718246982597776457,raw_gnss,0,0,39.9253627811,116.19994341,65.6659631915,0.0,0.0,0.0,0.0,0.0,0.0,0.0,0.0,0.0,0
1718246982647826049,4038,1718246982647759761,raw_gnss,0,0,39.925363954,116.199943148,65.6478757514,0.0,0.0,0.0,0.0,0.0,0.0,0.0,0.0,0.0,0
1718246982697971778,4039,1718246982697793959,raw_gnss,0,0,39.925363954,116.199943148,65.6478757514,0.0,0.0,0.0,0.0,0.0,0.0,0.0,0.0,0.0,0
1718246982748071223,4040,1718246982747840848,raw_gnss,0,0,39.9253652159,116.199942897,65.637002456,0.0,0.0,0.0,0.0,0.0,0.0,0.0,0.0,0.0,0
1718246982798090524,4041,1718246982797843425,raw_gnss,0,0,39.9253664597,116.199942657,65.6298400713,0.0,0.0,0.0,0.0,0.0,0.0,0.0,0.0,0.0,0
1718246982848372480,4042,1718246982848036114,raw_gnss,0,0,39.9253664597,116.199942657,65.6298400713,0.0,0.0,0.0,0.0,0.0,0.0,0.0,0.0,0.0,0
1718246982898113324,4043,1718246982897852275,raw_gnss,0,0,39.925367711,116.199942377,65.6262163986,0.0,0.0,0.0,0.0,0.0,0.0,0.0,0.0,0.0,0
1718246982948324564,4044,1718246982947937730,raw_gnss,0,0,39.925367711,116.199942377,65.6262163986,0.0,0.0,0.0,0.0,0.0,0.0,0.0,0.0,0.0,0
1718246982998097485,4045,1718246982997726013,raw_gnss,0,0,39.925367711,116.199942377,65.6262163986,0.0,0.0,0.0,0.0,0.0,0.0,0.0,0.0,0.0,0
1718246983048413353,4046,1718246983047936816,raw_gnss,0,0,39.9253688657,116.199942136,65.6281864895,0.0,0.0,0.0,0.0,0.0,0.0,0.0,0.0,0.0,0
1718246983098058562,4047,1718246983097803087,raw_gnss,0,0,39.9253700269,116.199941955,65.6288790694,0.0,0.0,0.0,0.0,0.0,0.0,0.0,0.0,0.0,0
1718246983147778813,4048,1718246983147642273,raw_gnss,0,0,39.9253700269,116.199941955,65.6288790694,0.0,0.0,0.0,0.0,0.0,0.0,0.0,0.0,0.0,0
1718246983197849618,4049,1718246983197781591,raw_gnss,0,0,39.9253712311,116.199941949,65.6266483683,0.0,0.0,0.0,0.0,0.0,0.0,0.0,0.0,0.0,0
1718246983248107081,4050,1718246983247867325,raw_gnss,0,0,39.9253712311,116.199941949,65.6266483683,0.0,0.0,0.0,0.0,0.0,0.0,0.0,0.0,0.0,0
1718246983298096956,4051,1718246983297749439,raw_gnss,0,0,39.9253724275,116.199941972,65.6232888354,0.0,0.0,0.0,0.0,0.0,0.0,0.0,0.0,0.0,0
1718246983348271220,4052,1718246983347849157,raw_gnss,0,0,39.9253724275,116.199941972,65.6232888354,0.0,0.0,0.0,0.0,0.0,0.0,0.0,0.0,0.0,0
1718246983398399017,4053,1718246983397945361,raw_gnss,0,0,39.9253736292,116.199942028,65.6216809554,0.0,0.0,0.0,0.0,0.0,0.0,0.0,0.0,0.0,0
1718246983448089938,4054,1718246983447889609,raw_gnss,0,0,39.9253736292,116.199942028,65.6216809554,0.0,0.0,0.0,0.0,0.0,0.0,0.0,0.0,0.0,0
1718246983498005276,4055,1718246983497835762,raw_gnss,0,0,39.9253747162,116.199941696,65.6190612903,0.0,0.0,0.0,0.0,0.0,0.0,0.0,0.0,0.0,0
1718246983548105952,4056,1718246983547949712,raw_gnss,0,0,39.9253747162,116.199941696,65.6190612903,0.0,0.0,0.0,0.0,0.0,0.0,0.0,0.0,0.0,0
1718246983598184287,4057,1718246983597877629,raw_gnss,0,0,39.9253747162,116.199941696,65.6190612903,0.0,0.0,0.0,0.0,0.0,0.0,0.0,0.0,0.0,0
1718246983648307800,4058,1718246983647871305,raw_gnss,0,0,39.9253757705,116.199941255,65.6202669106,0.0,0.0,0.0,0.0,0.0,0.0,0.0,0.0,0.0,0
1718246983698235592,4059,1718246983697874826,raw_gnss,0,0,39.9253767382,116.199940716,65.6284824563,0.0,0.0,0.0,0.0,0.0,0.0,0.0,0.0,0.0,0
1718246983748276852,4060,1718246983747971307,raw_gnss,0,0,39.9253767382,116.199940716,65.6284824563,0.0,0.0,0.0,0.0,0.0,0.0,0.0,0.0,0.0,0
1718246983797899118,4061,1718246983797821335,raw_gnss,0,0,39.9253777131,116.199940199,65.6345055671,0.0,0.0,0.0,0.0,0.0,0.0,0.0,0.0,0.0,0
1718246983848014018,4062,1718246983847858006,raw_gnss,0,0,39.9253777131,116.199940199,65.6345055671,0.0,0.0,0.0,0.0,0.0,0.0,0.0,0.0,0.0,0
1718246983897890282,4063,1718246983897814437,raw_gnss,0,0,39.9253777131,116.199940199,65.6345055671,0.0,0.0,0.0,0.0,0.0,0.0,0.0,0.0,0.0,0
1718246983947835405,4064,1718246983947780469,raw_gnss,0,0,39.9253787526,116.199939748,65.6349906409,0.0,0.0,0.0,0.0,0.0,0.0,0.0,0.0,0.0,0
1718246983997829079,4065,1718246983997776153,raw_gnss,0,0,39.9253798662,116.199939221,65.6366417566,0.0,0.0,0.0,0.0,0.0,0.0,0.0,0.0,0.0,0
1718246984047946873,4066,1718246984047818265,raw_gnss,0,0,39.9253798662,116.199939221,65.6366417566,0.0,0.0,0.0,0.0,0.0,0.0,0.0,0.0,0.0,0
1718246984097807306,4067,1718246984097751405,raw_gnss,0,0,39.9253810651,116.199938778,65.637179371,0.0,0.0,0.0,0.0,0.0,0.0,0.0,0.0,0.0,0
1718246984147869815,4068,1718246984147778307,raw_gnss,0,0,39.9253810651,116.199938778,65.637179371,0.0,0.0,0.0,0.0,0.0,0.0,0.0,0.0,0.0,0
1718246984197841549,4069,1718246984197752853,raw_gnss,0,0,39.9253823124,116.199938364,65.6372949742,0.0,0.0,0.0,0.0,0.0,0.0,0.0,0.0,0.0,0
1718246984247848376,4070,1718246984247780840,raw_gnss,0,0,39.9253823124,116.199938364,65.6372949742,0.0,0.0,0.0,0.0,0.0,0.0,0.0,0.0,0.0,0
1718246984297813760,4071,1718246984297762613,raw_gnss,0,0,39.925383481,116.199938041,65.6381405611,0.0,0.0,0.0,0.0,0.0,0.0,0.0,0.0,0.0,0
1718246984347860970,4072,1718246984347796915,raw_gnss,0,0,39.925383481,116.199938041,65.6381405611,0.0,0.0,0.0,0.0,0.0,0.0,0.0,0.0,0.0,0
1718246984397848073,4073,1718246984397778561,raw_gnss,0,0,39.9253846743,116.199937788,65.6401498392,0.0,0.0,0.0,0.0,0.0,0.0,0.0,0.0,0.0,0
1718246984447889095,4074,1718246984447768300,raw_gnss,0,0,39.9253846743,116.199937788,65.6401498392,0.0,0.0,0.0,0.0,0.0,0.0,0.0,0.0,0.0,0
1718246984498093049,4075,1718246984497841335,raw_gnss,0,0,39.9253858045,116.199937515,65.643165811,0.0,0.0,0.0,0.0,0.0,0.0,0.0,0.0,0.0,0
1718246984547824951,4076,1718246984547774535,raw_gnss,0,0,39.9253858045,116.199937515,65.643165811,0.0,0.0,0.0,0.0,0.0,0.0,0.0,0.0,0.0,0
1718246984597846319,4077,1718246984597781438,raw_gnss,0,0,39.9253858045,116.199937515,65.643165811,0.0,0.0,0.0,0.0,0.0,0.0,0.0,0.0,0.0,0
1718246984647815145,4078,1718246984647749812,raw_gnss,0,0,39.9253869559,116.199937142,65.6473364579,0.0,0.0,0.0,0.0,0.0,0.0,0.0,0.0,0.0,0
1718246984697847615,4079,1718246984697779181,raw_gnss,0,0,39.9253869559,116.199937142,65.6473364579,0.0,0.0,0.0,0.0,0.0,0.0,0.0,0.0,0.0,0
1718246984747865187,4080,1718246984747771134,raw_gnss,0,0,39.9253882453,116.199936866,65.6512729023,0.0,0.0,0.0,0.0,0.0,0.0,0.0,0.0,0.0,0
1718246984797843716,4081,1718246984797785923,raw_gnss,0,0,39.9253895213,116.199936486,65.6585949082,0.0,0.0,0.0,0.0,0.0,0.0,0.0,0.0,0.0,0
1718246984848036652,4082,1718246984847814074,raw_gnss,0,0,39.9253895213,116.199936486,65.6585949082,0.0,0.0,0.0,0.0,0.0,0.0,0.0,0.0,0.0,0
1718246984897820253,4083,1718246984897774514,raw_gnss,0,0,39.925390878,116.199936213,65.6556301434,0.0,0.0,0.0,0.0,0.0,0.0,0.0,0.0,0.0,0
1718246984947840760,4084,1718246984947777899,raw_gnss,0,0,39.925390878,116.199936213,65.6556301434,0.0,0.0,0.0,0.0,0.0,0.0,0.0,0.0,0.0,0
1718246984997881111,4085,1718246984997780296,raw_gnss,0,0,39.9253921558,116.199935984,65.6508702822,0.0,0.0,0.0,0.0,0.0,0.0,0.0,0.0,0.0,0
1718246985047901444,4086,1718246985047797688,raw_gnss,0,0,39.9253921558,116.199935984,65.6508702822,0.0,0.0,0.0,0.0,0.0,0.0,0.0,0.0,0.0,0
1718246985097841232,4087,1718246985097781098,raw_gnss,0,0,39.9253934206,116.199935738,65.6466597784,0.0,0.0,0.0,0.0,0.0,0.0,0.0,0.0,0.0,0
1718246985147845240,4088,1718246985147778273,raw_gnss,0,0,39.9253934206,116.199935738,65.6466597784,0.0,0.0,0.0,0.0,0.0,0.0,0.0,0.0,0.0,0
1718246985197861694,4089,1718246985197785802,raw_gnss,0,0,39.9253945795,116.199935284,65.6498497669,0.0,0.0,0.0,0.0,0.0,0.0,0.0,0.0,0.0,0
1718246985247840635,4090,1718246985247777578,raw_gnss,0,0,39.9253945795,116.199935284,65.6498497669,0.0,0.0,0.0,0.0,0.0,0.0,0.0,0.0,0.0,0
1718246985297883623,4091,1718246985297789302,raw_gnss,0,0,39.9253957556,116.199934892,65.6555636581,0.0,0.0,0.0,0.0,0.0,0.0,0.0,0.0,0.0,0
1718246985347830668,4092,1718246985347778718,raw_gnss,0,0,39.9253957556,116.199934892,65.6555636581,0.0,0.0,0.0,0.0,0.0,0.0,0.0,0.0,0.0,0
1718246985397861235,4093,1718246985397782101,raw_gnss,0,0,39.9253968504,116.199934579,65.6528785536,0.0,0.0,0.0,0.0,0.0,0.0,0.0,0.0,0.0,0
1718246985447827893,4094,1718246985447762977,raw_gnss,0,0,39.9253968504,116.199934579,65.6528785536,0.0,0.0,0.0,0.0,0.0,0.0,0.0,0.0,0.0,0
1718246985497868157,4095,1718246985497790391,raw_gnss,0,0,39.9253979423,116.199934175,65.6490558824,0.0,0.0,0.0,0.0,0.0,0.0,0.0,0.0,0.0,0
1718246985547876469,4096,1718246985547798513,raw_gnss,0,0,39.9253979423,116.199934175,65.6490558824,0.0,0.0,0.0,0.0,0.0,0.0,0.0,0.0,0.0,0
1718246985597853017,4097,1718246985597790288,raw_gnss,0,0,39.9253979423,116.199934175,65.6490558824,0.0,0.0,0.0,0.0,0.0,0.0,0.0,0.0,0.0,0
1718246985647994731,4098,1718246985647822575,raw_gnss,0,0,39.9253989951,116.199933789,65.6446363134,0.0,0.0,0.0,0.0,0.0,0.0,0.0,0.0,0.0,0
1718246985697843029,4099,1718246985697784568,raw_gnss,0,0,39.9254001162,116.19993346,65.6416351739,0.0,0.0,0.0,0.0,0.0,0.0,0.0,0.0,0.0,0
1718246985747841694,4100,1718246985747753345,raw_gnss,0,0,39.9254001162,116.19993346,65.6416351739,0.0,0.0,0.0,0.0,0.0,0.0,0.0,0.0,0.0,0
1718246985797881503,4101,1718246985797814569,raw_gnss,0,0,39.9254012431,116.199933099,65.6400163602,0.0,0.0,0.0,0.0,0.0,0.0,0.0,0.0,0.0,0
1718246985848138768,4102,1718246985847992253,raw_gnss,0,0,39.9254012431,116.199933099,65.6400163602,0.0,0.0,0.0,0.0,0.0,0.0,0.0,0.0,0.0,0
1718246985897844168,4103,1718246985897779373,raw_gnss,0,0,39.9254023653,116.199932633,65.6385215111,0.0,0.0,0.0,0.0,0.0,0.0,0.0,0.0,0.0,0
1718246985947823699,4104,1718246985947776343,raw_gnss,0,0,39.9254023653,116.199932633,65.6385215111,0.0,0.0,0.0,0.0,0.0,0.0,0.0,0.0,0.0,0
1718246985997874870,4105,1718246985997789182,raw_gnss,0,0,39.9254035302,116.199932157,65.6374895237,0.0,0.0,0.0,0.0,0.0,0.0,0.0,0.0,0.0,0
1718246986047820370,4106,1718246986047775349,raw_gnss,0,0,39.9254035302,116.199932157,65.6374895237,0.0,0.0,0.0,0.0,0.0,0.0,0.0,0.0,0.0,0
1718246986097876445,4107,1718246986097791081,raw_gnss,0,0,39.9254046875,116.199931692,65.6373557774,0.0,0.0,0.0,0.0,0.0,0.0,0.0,0.0,0.0,0
1718246986147850364,4108,1718246986147783264,raw_gnss,0,0,39.9254046875,116.199931692,65.6373557774,0.0,0.0,0.0,0.0,0.0,0.0,0.0,0.0,0.0,0
1718246986197851675,4109,1718246986197784374,raw_gnss,0,0,39.9254058969,116.199931247,65.6411745306,0.0,0.0,0.0,0.0,0.0,0.0,0.0,0.0,0.0,0
1718246986247929260,4110,1718246986247783261,raw_gnss,0,0,39.9254058969,116.199931247,65.6411745306,0.0,0.0,0.0,0.0,0.0,0.0,0.0,0.0,0.0,0
1718246986297849089,4111,1718246986297782936,raw_gnss,0,0,39.9254071359,116.199930815,65.6423733765,0.0,0.0,0.0,0.0,0.0,0.0,0.0,0.0,0.0,0
1718246986347896853,4112,1718246986347819835,raw_gnss,0,0,39.9254071359,116.199930815,65.6423733765,0.0,0.0,0.0,0.0,0.0,0.0,0.0,0.0,0.0,0
1718246986397815121,4113,1718246986397757193,raw_gnss,0,0,39.9254083865,116.199930395,65.6426693499,0.0,0.0,0.0,0.0,0.0,0.0,0.0,0.0,0.0,0
1718246986447917692,4114,1718246986447788856,raw_gnss,0,0,39.9254083865,116.199930395,65.6426693499,0.0,0.0,0.0,0.0,0.0,0.0,0.0,0.0,0.0,0
1718246986497840988,4115,1718246986497780153,raw_gnss,0,0,39.9254096182,116.19992999,65.6426306833,0.0,0.0,0.0,0.0,0.0,0.0,0.0,0.0,0.0,0
1718246986547845385,4116,1718246986547781779,raw_gnss,0,0,39.9254096182,116.19992999,65.6426306833,0.0,0.0,0.0,0.0,0.0,0.0,0.0,0.0,0.0,0
1718246986597833348,4117,1718246986597778134,raw_gnss,0,0,39.9254096182,116.19992999,65.6426306833,0.0,0.0,0.0,0.0,0.0,0.0,0.0,0.0,0.0,0
1718246986647928956,4118,1718246986647784810,raw_gnss,0,0,39.9254108057,116.199929635,65.6419095937,0.0,0.0,0.0,0.0,0.0,0.0,0.0,0.0,0.0,0
1718246986697840328,4119,1718246986697783326,raw_gnss,0,0,39.9254120017,116.199929226,65.6408262393,0.0,0.0,0.0,0.0,0.0,0.0,0.0,0.0,0.0,0
1718246986747835423,4120,1718246986747779848,raw_gnss,0,0,39.9254120017,116.199929226,65.6408262393,0.0,0.0,0.0,0.0,0.0,0.0,0.0,0.0,0.0,0
1718246986797852627,4121,1718246986797762358,raw_gnss,0,0,39.9254131788,116.199928844,65.6391709223,0.0,0.0,0.0,0.0,0.0,0.0,0.0,0.0,0.0,0
1718246986847812402,4122,1718246986847756560,raw_gnss,0,0,39.9254131788,116.199928844,65.6391709223,0.0,0.0,0.0,0.0,0.0,0.0,0.0,0.0,0.0,0
1718246986897929056,4123,1718246986897777290,raw_gnss,0,0,39.9254144097,116.199928506,65.6355388286,0.0,0.0,0.0,0.0,0.0,0.0,0.0,0.0,0.0,0
1718246986947843839,4124,1718246986947781270,raw_gnss,0,0,39.9254144097,116.199928506,65.6355388286,0.0,0.0,0.0,0.0,0.0,0.0,0.0,0.0,0.0,0
1718246986997894856,4125,1718246986997779014,raw_gnss,0,0,39.9254155641,116.199928135,65.6295542372,0.0,0.0,0.0,0.0,0.0,0.0,0.0,0.0,0.0,0
1718246987047873364,4126,1718246987047787969,raw_gnss,0,0,39.9254155641,116.199928135,65.6295542372,0.0,0.0,0.0,0.0,0.0,0.0,0.0,0.0,0.0,0
1718246987097864100,4127,1718246987097791526,raw_gnss,0,0,39.9254166705,116.199927689,65.6296604648,0.0,0.0,0.0,0.0,0.0,0.0,0.0,0.0,0.0,0
1718246987147856038,4128,1718246987147760982,raw_gnss,0,0,39.9254166705,116.199927689,65.6296604648,0.0,0.0,0.0,0.0,0.0,0.0,0.0,0.0,0.0,0
1718246987197805610,4129,1718246987197751827,raw_gnss,0,0,39.9254178199,116.199927324,65.6290044608,0.0,0.0,0.0,0.0,0.0,0.0,0.0,0.0,0.0,0
1718246987248039194,4130,1718246987247807367,raw_gnss,0,0,39.9254178199,116.199927324,65.6290044608,0.0,0.0,0.0,0.0,0.0,0.0,0.0,0.0,0.0,0
1718246987297821143,4131,1718246987297755916,raw_gnss,0,0,39.9254189348,116.199926977,65.629697239,0.0,0.0,0.0,0.0,0.0,0.0,0.0,0.0,0.0,0
1718246987347875837,4132,1718246987347788780,raw_gnss,0,0,39.9254189348,116.199926977,65.629697239,0.0,0.0,0.0,0.0,0.0,0.0,0.0,0.0,0.0,0
1718246987397835319,4133,1718246987397777046,raw_gnss,0,0,39.9254200748,116.199926662,65.6289544944,0.0,0.0,0.0,0.0,0.0,0.0,0.0,0.0,0.0,0
1718246987447973457,4134,1718246987447822116,raw_gnss,0,0,39.9254200748,116.199926662,65.6289544944,0.0,0.0,0.0,0.0,0.0,0.0,0.0,0.0,0.0,0
1718246987497819553,4135,1718246987497750546,raw_gnss,0,0,39.925421209,116.199926327,65.6292620376,0.0,0.0,0.0,0.0,0.0,0.0,0.0,0.0,0.0,0
1718246987547833704,4136,1718246987547784886,raw_gnss,0,0,39.925421209,116.199926327,65.6292620376,0.0,0.0,0.0,0.0,0.0,0.0,0.0,0.0,0.0,0
1718246987598176335,4137,1718246987597829010,raw_gnss,0,0,39.925421209,116.199926327,65.6292620376,0.0,0.0,0.0,0.0,0.0,0.0,0.0,0.0,0.0,0
1718246987647961859,4138,1718246987647820059,raw_gnss,0,0,39.9254223617,116.199925977,65.6283951681,0.0,0.0,0.0,0.0,0.0,0.0,0.0,0.0,0.0,0
1718246987698119282,4139,1718246987697847175,raw_gnss,0,0,39.9254236309,116.199925818,65.6109552803,0.0,0.0,0.0,0.0,0.0,0.0,0.0,0.0,0.0,0
1718246987747803133,4140,1718246987747751172,raw_gnss,0,0,39.9254236309,116.199925818,65.6109552803,0.0,0.0,0.0,0.0,0.0,0.0,0.0,0.0,0.0,0
1718246987797917850,4141,1718246987797791629,raw_gnss,0,0,39.9254250105,116.199925634,65.5847755577,0.0,0.0,0.0,0.0,0.0,0.0,0.0,0.0,0.0,0
1718246987847888104,4142,1718246987847759439,raw_gnss,0,0,39.9254250105,116.199925634,65.5847755577,0.0,0.0,0.0,0.0,0.0,0.0,0.0,0.0,0.0,0
1718246987897878447,4143,1718246987897816087,raw_gnss,0,0,39.9254263265,116.199925451,65.5598003212,0.0,0.0,0.0,0.0,0.0,0.0,0.0,0.0,0.0,0
1718246987947833639,4144,1718246987947774180,raw_gnss,0,0,39.9254263265,116.199925451,65.5598003212,0.0,0.0,0.0,0.0,0.0,0.0,0.0,0.0,0.0,0
1718246987997876949,4145,1718246987997805612,raw_gnss,0,0,39.9254276307,116.199925202,65.5322689395,0.0,0.0,0.0,0.0,0.0,0.0,0.0,0.0,0.0,0
1718246988048014057,4146,1718246988047818156,raw_gnss,0,0,39.9254276307,116.199925202,65.5322689395,0.0,0.0,0.0,0.0,0.0,0.0,0.0,0.0,0.0,0
1718246988097850221,4147,1718246988097784784,raw_gnss,0,0,39.9254288421,116.199924845,65.5144381281,0.0,0.0,0.0,0.0,0.0,0.0,0.0,0.0,0.0,0
1718246988147929154,4148,1718246988147801502,raw_gnss,0,0,39.9254288421,116.199924845,65.5144381281,0.0,0.0,0.0,0.0,0.0,0.0,0.0,0.0,0.0,0
1718246988197911831,4149,1718246988197829071,raw_gnss,0,0,39.9254299421,116.199924382,65.5102414377,0.0,0.0,0.0,0.0,0.0,0.0,0.0,0.0,0.0,0
1718246988247928135,4150,1718246988247794314,raw_gnss,0,0,39.9254299421,116.199924382,65.5102414377,0.0,0.0,0.0,0.0,0.0,0.0,0.0,0.0,0.0,0
1718246988297819711,4151,1718246988297762519,raw_gnss,0,0,39.9254309747,116.199923798,65.5115473028,0.0,0.0,0.0,0.0,0.0,0.0,0.0,0.0,0.0,0
1718246988347878818,4152,1718246988347788283,raw_gnss,0,0,39.9254309747,116.199923798,65.5115473028,0.0,0.0,0.0,0.0,0.0,0.0,0.0,0.0,0.0,0
1718246988397850141,4153,1718246988397784551,raw_gnss,0,0,39.9254320815,116.199923242,65.5092854472,0.0,0.0,0.0,0.0,0.0,0.0,0.0,0.0,0.0,0
1718246988447832536,4154,1718246988447781554,raw_gnss,0,0,39.9254320815,116.199923242,65.5092854472,0.0,0.0,0.0,0.0,0.0,0.0,0.0,0.0,0.0,0
1718246988498058559,4155,1718246988497856766,raw_gnss,0,0,39.925433177,116.199922702,65.5042389361,0.0,0.0,0.0,0.0,0.0,0.0,0.0,0.0,0.0,0
1718246988547851402,4156,1718246988547777373,raw_gnss,0,0,39.925433177,116.199922702,65.5042389361,0.0,0.0,0.0,0.0,0.0,0.0,0.0,0.0,0.0,0
1718246988597932866,4157,1718246988597772860,raw_gnss,0,0,39.925433177,116.199922702,65.5042389361,0.0,0.0,0.0,0.0,0.0,0.0,0.0,0.0,0.0,0
1718246988647835674,4158,1718246988647779021,raw_gnss,0,0,39.9254343019,116.199922211,65.5001903018,0.0,0.0,0.0,0.0,0.0,0.0,0.0,0.0,0.0,0
1718246988697880852,4159,1718246988697785899,raw_gnss,0,0,39.9254354562,116.199921756,65.4839826692,0.0,0.0,0.0,0.0,0.0,0.0,0.0,0.0,0.0,0
1718246988747828456,4160,1718246988747757544,raw_gnss,0,0,39.9254354562,116.199921756,65.4839826692,0.0,0.0,0.0,0.0,0.0,0.0,0.0,0.0,0.0,0
1718246988797827356,4161,1718246988797781172,raw_gnss,0,0,39.9254366642,116.199921365,65.4613363929,0.0,0.0,0.0,0.0,0.0,0.0,0.0,0.0,0.0,0
1718246988848043863,4162,1718246988847830427,raw_gnss,0,0,39.9254366642,116.199921365,65.4613363929,0.0,0.0,0.0,0.0,0.0,0.0,0.0,0.0,0.0,0
1718246988897840470,4163,1718246988897785310,raw_gnss,0,0,39.9254379034,116.199920933,65.4399503097,0.0,0.0,0.0,0.0,0.0,0.0,0.0,0.0,0.0,0
1718246988947936396,4164,1718246988947792468,raw_gnss,0,0,39.9254379034,116.199920933,65.4399503097,0.0,0.0,0.0,0.0,0.0,0.0,0.0,0.0,0.0,0
1718246988997868493,4165,1718246988997805441,raw_gnss,0,0,39.9254391172,116.199920514,65.4184262613,0.0,0.0,0.0,0.0,0.0,0.0,0.0,0.0,0.0,0
1718246989047930653,4166,1718246989047762407,raw_gnss,0,0,39.9254391172,116.199920514,65.4184262613,0.0,0.0,0.0,0.0,0.0,0.0,0.0,0.0,0.0,0
1718246989097876037,4167,1718246989097811063,raw_gnss,0,0,39.9254391172,116.199920514,65.4184262613,0.0,0.0,0.0,0.0,0.0,0.0,0.0,0.0,0.0,0
1718246989147820397,4168,1718246989147759719,raw_gnss,0,0,39.9254402268,116.199920043,65.3870905936,0.0,0.0,0.0,0.0,0.0,0.0,0.0,0.0,0.0,0
1718246989197870450,4169,1718246989197791630,raw_gnss,0,0,39.9254413644,116.199919659,65.3453860441,0.0,0.0,0.0,0.0,0.0,0.0,0.0,0.0,0.0,0
1718246989247829976,4170,1718246989247762108,raw_gnss,0,0,39.9254413644,116.199919659,65.3453860441,0.0,0.0,0.0,0.0,0.0,0.0,0.0,0.0,0.0,0
1718246989298031147,4171,1718246989297850056,raw_gnss,0,0,39.9254423108,116.199919223,65.2956060674,0.0,0.0,0.0,0.0,0.0,0.0,0.0,0.0,0.0,0
1718246989347838429,4172,1718246989347753069,raw_gnss,0,0,39.9254423108,116.199919223,65.2956060674,0.0,0.0,0.0,0.0,0.0,0.0,0.0,0.0,0.0,0
1718246989397920821,4173,1718246989397814896,raw_gnss,0,0,39.9254431418,116.199918611,65.2544526784,0.0,0.0,0.0,0.0,0.0,0.0,0.0,0.0,0.0,0
1718246989447822696,4174,1718246989447756579,raw_gnss,0,0,39.9254431418,116.199918611,65.2544526784,0.0,0.0,0.0,0.0,0.0,0.0,0.0,0.0,0.0,0
1718246989497842946,4175,1718246989497781402,raw_gnss,0,0,39.9254438526,116.199917986,65.2143711969,0.0,0.0,0.0,0.0,0.0,0.0,0.0,0.0,0.0,0
1718246989547807580,4176,1718246989547754216,raw_gnss,0,0,39.9254438526,116.199917986,65.2143711969,0.0,0.0,0.0,0.0,0.0,0.0,0.0,0.0,0.0,0
1718246989597882887,4177,1718246989597821240,raw_gnss,0,0,39.9254438526,116.199917986,65.2143711969,0.0,0.0,0.0,0.0,0.0,0.0,0.0,0.0,0.0,0
1718246989647969036,4178,1718246989647811187,raw_gnss,0,0,39.9254446039,116.199917254,65.1823199345,0.0,0.0,0.0,0.0,0.0,0.0,0.0,0.0,0.0,0
1718246989697849856,4179,1718246989697783240,raw_gnss,0,0,39.9254454172,116.199916492,65.1639015926,0.0,0.0,0.0,0.0,0.0,0.0,0.0,0.0,0.0,0
1718246989748104627,4180,1718246989747859069,raw_gnss,0,0,39.9254454172,116.199916492,65.1639015926,0.0,0.0,0.0,0.0,0.0,0.0,0.0,0.0,0.0,0
1718246989797856928,4181,1718246989797796747,raw_gnss,0,0,39.9254454172,116.199916492,65.1639015926,0.0,0.0,0.0,0.0,0.0,0.0,0.0,0.0,0.0,0
1718246989848030816,4182,1718246989847775619,raw_gnss,0,0,39.9254463217,116.199915693,65.1602739291,0.0,0.0,0.0,0.0,0.0,0.0,0.0,0.0,0.0,0
1718246989897840790,4183,1718246989897782297,raw_gnss,0,0,39.9254472022,116.199914966,65.1566929258,0.0,0.0,0.0,0.0,0.0,0.0,0.0,0.0,0.0,0
1718246989947862002,4184,1718246989947762422,raw_gnss,0,0,39.9254472022,116.199914966,65.1566929258,0.0,0.0,0.0,0.0,0.0,0.0,0.0,0.0,0.0,0
1718246989997816816,4185,1718246989997758975,raw_gnss,0,0,39.9254472022,116.199914966,65.1566929258,0.0,0.0,0.0,0.0,0.0,0.0,0.0,0.0,0.0,0
1718246990047840964,4186,1718246990047782399,raw_gnss,0,0,39.9254481244,116.19991425,65.1553446017,0.0,0.0,0.0,0.0,0.0,0.0,0.0,0.0,0.0,0
1718246990097923156,4187,1718246990097793707,raw_gnss,0,0,39.9254491295,116.199913517,65.1509150872,0.0,0.0,0.0,0.0,0.0,0.0,0.0,0.0,0.0,0
1718246990147856901,4188,1718246990147785069,raw_gnss,0,0,39.9254491295,116.199913517,65.1509150872,0.0,0.0,0.0,0.0,0.0,0.0,0.0,0.0,0.0,0
1718246990197950934,4189,1718246990197794712,raw_gnss,0,0,39.9254491295,116.199913517,65.1509150872,0.0,0.0,0.0,0.0,0.0,0.0,0.0,0.0,0.0,0
1718246990247862967,4190,1718246990247795949,raw_gnss,0,0,39.925450214,116.199912932,65.1477208342,0.0,0.0,0.0,0.0,0.0,0.0,0.0,0.0,0.0,0
1718246990297854755,4191,1718246990297802565,raw_gnss,0,0,39.925450214,116.199912932,65.1477208342,0.0,0.0,0.0,0.0,0.0,0.0,0.0,0.0,0.0,0
1718246990347838071,4192,1718246990347779732,raw_gnss,0,0,39.9254513067,116.199912376,65.1424496965,0.0,0.0,0.0,0.0,0.0,0.0,0.0,0.0,0.0,0
1718246990397867970,4193,1718246990397803109,raw_gnss,0,0,39.9254523533,116.199911798,65.1398286009,0.0,0.0,0.0,0.0,0.0,0.0,0.0,0.0,0.0,0
1718246990447927727,4194,1718246990447768418,raw_gnss,0,0,39.9254523533,116.199911798,65.1398286009,0.0,0.0,0.0,0.0,0.0,0.0,0.0,0.0,0.0,0
1718246990497896197,4195,1718246990497832608,raw_gnss,0,0,39.9254533959,116.199911233,65.1325476114,0.0,0.0,0.0,0.0,0.0,0.0,0.0,0.0,0.0,0
1718246990547965472,4196,1718246990547806582,raw_gnss,0,0,39.9254533959,116.199911233,65.1325476114,0.0,0.0,0.0,0.0,0.0,0.0,0.0,0.0,0.0,0
1718246990597856069,4197,1718246990597789108,raw_gnss,0,0,39.9254533959,116.199911233,65.1325476114,0.0,0.0,0.0,0.0,0.0,0.0,0.0,0.0,0.0,0
1718246990647991429,4198,1718246990647791122,raw_gnss,0,0,39.9254544546,116.199910671,65.1194455549,0.0,0.0,0.0,0.0,0.0,0.0,0.0,0.0,0.0,0
1718246990697803818,4199,1718246990697754490,raw_gnss,0,0,39.9254544546,116.199910671,65.1194455549,0.0,0.0,0.0,0.0,0.0,0.0,0.0,0.0,0.0,0
1718246990747888648,4200,1718246990747781696,raw_gnss,0,0,39.9254554311,116.199910128,65.1159667438,0.0,0.0,0.0,0.0,0.0,0.0,0.0,0.0,0.0,0
1718246990797887210,4201,1718246990797761389,raw_gnss,0,0,39.9254564121,116.199909637,65.1062091645,0.0,0.0,0.0,0.0,0.0,0.0,0.0,0.0,0.0,0
1718246990847880591,4202,1718246990847779308,raw_gnss,0,0,39.9254564121,116.199909637,65.1062091645,0.0,0.0,0.0,0.0,0.0,0.0,0.0,0.0,0.0,0
1718246990898027401,4203,1718246990897823688,raw_gnss,0,0,39.925457348,116.199909192,65.0874670465,0.0,0.0,0.0,0.0,0.0,0.0,0.0,0.0,0.0,0
1718246990947839316,4204,1718246990947787746,raw_gnss,0,0,39.925457348,116.199909192,65.0874670465,0.0,0.0,0.0,0.0,0.0,0.0,0.0,0.0,0.0,0
1718246990997907988,4205,1718246990997788419,raw_gnss,0,0,39.925457348,116.199909192,65.0874670465,0.0,0.0,0.0,0.0,0.0,0.0,0.0,0.0,0.0,0
1718246991047849972,4206,1718246991047789085,raw_gnss,0,0,39.9254581861,116.199908751,65.069890203,0.0,0.0,0.0,0.0,0.0,0.0,0.0,0.0,0.0,0
1718246991097923119,4207,1718246991097772475,raw_gnss,0,0,39.9254589464,116.199908287,65.0474683875,0.0,0.0,0.0,0.0,0.0,0.0,0.0,0.0,0.0,0
1718246991147850190,4208,1718246991147760669,raw_gnss,0,0,39.9254589464,116.199908287,65.0474683875,0.0,0.0,0.0,0.0,0.0,0.0,0.0,0.0,0.0,0
1718246991197896902,4209,1718246991197815612,raw_gnss,0,0,39.9254589464,116.199908287,65.0474683875,0.0,0.0,0.0,0.0,0.0,0.0,0.0,0.0,0.0,0
1718246991248158631,4210,1718246991247874884,raw_gnss,0,0,39.9254597728,116.199907884,65.0406390307,0.0,0.0,0.0,0.0,0.0,0.0,0.0,0.0,0.0,0
1718246991297817773,4211,1718246991297755694,raw_gnss,0,0,39.9254597728,116.199907884,65.0406390307,0.0,0.0,0.0,0.0,0.0,0.0,0.0,0.0,0.0,0
1718246991348000129,4212,1718246991347804599,raw_gnss,0,0,39.925460565,116.199907461,65.0294271223,0.0,0.0,0.0,0.0,0.0,0.0,0.0,0.0,0.0,0
1718246991397892359,4213,1718246991397822247,raw_gnss,0,0,39.925460565,116.199907461,65.0294271223,0.0,0.0,0.0,0.0,0.0,0.0,0.0,0.0,0.0,0
1718246991447940131,4214,1718246991447781673,raw_gnss,0,0,39.92546137,116.199906955,65.0210937988,0.0,0.0,0.0,0.0,0.0,0.0,0.0,0.0,0.0,0
1718246991497843125,4215,1718246991497784750,raw_gnss,0,0,39.9254621925,116.199906324,65.0139910998,0.0,0.0,0.0,0.0,0.0,0.0,0.0,0.0,0.0,0
1718246991547894022,4216,1718246991547783183,raw_gnss,0,0,39.9254621925,116.199906324,65.0139910998,0.0,0.0,0.0,0.0,0.0,0.0,0.0,0.0,0.0,0
1718246991597865548,4217,1718246991597786785,raw_gnss,0,0,39.9254621925,116.199906324,65.0139910998,0.0,0.0,0.0,0.0,0.0,0.0,0.0,0.0,0.0,0
1718246991647821605,4218,1718246991647771054,raw_gnss,0,0,39.9254630588,116.199905721,65.0055867014,0.0,0.0,0.0,0.0,0.0,0.0,0.0,0.0,0.0,0
1718246991698007732,4219,1718246991697832040,raw_gnss,0,0,39.9254639396,116.199905147,65.0030291025,0.0,0.0,0.0,0.0,0.0,0.0,0.0,0.0,0.0,0
1718246991747828289,4220,1718246991747776662,raw_gnss,0,0,39.9254639396,116.199905147,65.0030291025,0.0,0.0,0.0,0.0,0.0,0.0,0.0,0.0,0.0,0
1718246991797858031,4221,1718246991797783492,raw_gnss,0,0,39.9254648182,116.199904643,65.0074945735,0.0,0.0,0.0,0.0,0.0,0.0,0.0,0.0,0.0,0
1718246991847955730,4222,1718246991847815490,raw_gnss,0,0,39.9254648182,116.199904643,65.0074945735,0.0,0.0,0.0,0.0,0.0,0.0,0.0,0.0,0.0,0
1718246991897968515,4223,1718246991897813005,raw_gnss,0,0,39.9254656991,116.199904082,65.0137196761,0.0,0.0,0.0,0.0,0.0,0.0,0.0,0.0,0.0,0
1718246991948001859,4224,1718246991947785467,raw_gnss,0,0,39.9254656991,116.199904082,65.0137196761,0.0,0.0,0.0,0.0,0.0,0.0,0.0,0.0,0.0,0
1718246991997834968,4225,1718246991997781415,raw_gnss,0,0,39.9254666243,116.199903393,65.0135206711,0.0,0.0,0.0,0.0,0.0,0.0,0.0,0.0,0.0,0
1718246992047884425,4226,1718246992047792605,raw_gnss,0,0,39.9254666243,116.199903393,65.0135206711,0.0,0.0,0.0,0.0,0.0,0.0,0.0,0.0,0.0,0
1718246992097832249,4227,1718246992097763333,raw_gnss,0,0,39.9254676471,116.199902645,64.9938596077,0.0,0.0,0.0,0.0,0.0,0.0,0.0,0.0,0.0,0
1718246992147945252,4228,1718246992147798274,raw_gnss,0,0,39.9254676471,116.199902645,64.9938596077,0.0,0.0,0.0,0.0,0.0,0.0,0.0,0.0,0.0,0
1718246992197944513,4229,1718246992197789138,raw_gnss,0,0,39.9254686894,116.199901876,64.9744353723,0.0,0.0,0.0,0.0,0.0,0.0,0.0,0.0,0.0,0
1718246992248066698,4230,1718246992247810486,raw_gnss,0,0,39.9254686894,116.199901876,64.9744353723,0.0,0.0,0.0,0.0,0.0,0.0,0.0,0.0,0.0,0
1718246992297868632,4231,1718246992297812600,raw_gnss,0,0,39.9254696877,116.199901118,64.9640354421,0.0,0.0,0.0,0.0,0.0,0.0,0.0,0.0,0.0,0
1718246992347841948,4232,1718246992347782288,raw_gnss,0,0,39.9254696877,116.199901118,64.9640354421,0.0,0.0,0.0,0.0,0.0,0.0,0.0,0.0,0.0,0
1718246992397875030,4233,1718246992397791428,raw_gnss,0,0,39.9254706536,116.199900392,64.961643232,0.0,0.0,0.0,0.0,0.0,0.0,0.0,0.0,0.0,0
1718246992447859721,4234,1718246992447812135,raw_gnss,0,0,39.9254706536,116.199900392,64.961643232,0.0,0.0,0.0,0.0,0.0,0.0,0.0,0.0,0.0,0
1718246992497918659,4235,1718246992497775918,raw_gnss,0,0,39.9254716029,116.199899677,64.9600158464,0.0,0.0,0.0,0.0,0.0,0.0,0.0,0.0,0.0,0
1718246992547829536,4236,1718246992547782116,raw_gnss,0,0,39.9254716029,116.199899677,64.9600158464,0.0,0.0,0.0,0.0,0.0,0.0,0.0,0.0,0.0,0
1718246992597987162,4237,1718246992597814292,raw_gnss,0,0,39.9254716029,116.199899677,64.9600158464,0.0,0.0,0.0,0.0,0.0,0.0,0.0,0.0,0.0,0
1718246992647906154,4238,1718246992647831888,raw_gnss,0,0,39.9254724548,116.199899004,64.9376897188,0.0,0.0,0.0,0.0,0.0,0.0,0.0,0.0,0.0,0
1718246992697972264,4239,1718246992697809270,raw_gnss,0,0,39.9254724548,116.199899004,64.9376897188,0.0,0.0,0.0,0.0,0.0,0.0,0.0,0.0,0.0,0
1718246992747814421,4240,1718246992747757866,raw_gnss,0,0,39.9254733559,116.199898277,64.9266248979,0.0,0.0,0.0,0.0,0.0,0.0,0.0,0.0,0.0,0
1718246992797887317,4241,1718246992797788101,raw_gnss,0,0,39.9254733559,116.199898277,64.9266248979,0.0,0.0,0.0,0.0,0.0,0.0,0.0,0.0,0.0,0
1718246992847822152,4242,1718246992847757855,raw_gnss,0,0,39.9254742267,116.199897449,64.9239548994,0.0,0.0,0.0,0.0,0.0,0.0,0.0,0.0,0.0,0
1718246992897862819,4243,1718246992897793276,raw_gnss,0,0,39.9254742267,116.199897449,64.9239548994,0.0,0.0,0.0,0.0,0.0,0.0,0.0,0.0,0.0,0
1718246992947938990,4244,1718246992947792781,raw_gnss,0,0,39.9254752092,116.199896586,64.9199520759,0.0,0.0,0.0,0.0,0.0,0.0,0.0,0.0,0.0,0
1718246992997837368,4245,1718246992997779900,raw_gnss,0,0,39.9254761599,116.199895747,64.9186719488,0.0,0.0,0.0,0.0,0.0,0.0,0.0,0.0,0.0,0
1718246993047961229,4246,1718246993047819798,raw_gnss,0,0,39.9254761599,116.199895747,64.9186719488,0.0,0.0,0.0,0.0,0.0,0.0,0.0,0.0,0.0,0
1718246993097819408,4247,1718246993097756676,raw_gnss,0,0,39.9254771181,116.19989494,64.9190785401,0.0,0.0,0.0,0.0,0.0,0.0,0.0,0.0,0.0,0
1718246993147923003,4248,1718246993147857461,raw_gnss,0,0,39.9254771181,116.19989494,64.9190785401,0.0,0.0,0.0,0.0,0.0,0.0,0.0,0.0,0.0,0
1718246993197860624,4249,1718246993197787052,raw_gnss,0,0,39.9254771181,116.19989494,64.9190785401,0.0,0.0,0.0,0.0,0.0,0.0,0.0,0.0,0.0,0
1718246993247861487,4250,1718246993247760649,raw_gnss,0,0,39.9254781158,116.199894197,64.90678633,0.0,0.0,0.0,0.0,0.0,0.0,0.0,0.0,0.0,0
1718246993297926093,4251,1718246993297819493,raw_gnss,0,0,39.9254781158,116.199894197,64.90678633,0.0,0.0,0.0,0.0,0.0,0.0,0.0,0.0,0.0,0
1718246993347833606,4252,1718246993347780845,raw_gnss,0,0,39.9254791659,116.199893417,64.8977749636,0.0,0.0,0.0,0.0,0.0,0.0,0.0,0.0,0.0,0
1718246993397916267,4253,1718246993397780029,raw_gnss,0,0,39.9254791659,116.199893417,64.8977749636,0.0,0.0,0.0,0.0,0.0,0.0,0.0,0.0,0.0,0
1718246993447802931,4254,1718246993447756484,raw_gnss,0,0,39.9254802119,116.199892689,64.8927432951,0.0,0.0,0.0,0.0,0.0,0.0,0.0,0.0,0.0,0
1718246993497916304,4255,1718246993497784365,raw_gnss,0,0,39.9254802119,116.199892689,64.8927432951,0.0,0.0,0.0,0.0,0.0,0.0,0.0,0.0,0.0,0
1718246993547822647,4256,1718246993547759253,raw_gnss,0,0,39.9254812494,116.199892014,64.8950581355,0.0,0.0,0.0,0.0,0.0,0.0,0.0,0.0,0.0,0
1718246993597840541,4257,1718246993597783282,raw_gnss,0,0,39.9254812494,116.199892014,64.8950581355,0.0,0.0,0.0,0.0,0.0,0.0,0.0,0.0,0.0,0
1718246993647928200,4258,1718246993647768409,raw_gnss,0,0,39.9254822931,116.199891287,64.899315943,0.0,0.0,0.0,0.0,0.0,0.0,0.0,0.0,0.0,0
1718246993697823350,4259,1718246993697766139,raw_gnss,0,0,39.9254833154,116.199890528,64.902382602,0.0,0.0,0.0,0.0,0.0,0.0,0.0,0.0,0.0,0
1718246993747950746,4260,1718246993747795225,raw_gnss,0,0,39.9254833154,116.199890528,64.902382602,0.0,0.0,0.0,0.0,0.0,0.0,0.0,0.0,0.0,0
1718246993797892985,4261,1718246993797786668,raw_gnss,0,0,39.9254833154,116.199890528,64.902382602,0.0,0.0,0.0,0.0,0.0,0.0,0.0,0.0,0.0,0
1718246993847967291,4262,1718246993847792171,raw_gnss,0,0,39.9254843623,116.199889756,64.9041300537,0.0,0.0,0.0,0.0,0.0,0.0,0.0,0.0,0.0,0
1718246993897835648,4263,1718246993897762942,raw_gnss,0,0,39.9254843623,116.199889756,64.9041300537,0.0,0.0,0.0,0.0,0.0,0.0,0.0,0.0,0.0,0
1718246993947881334,4264,1718246993947829343,raw_gnss,0,0,39.9254855452,116.199888947,64.90489804,0.0,0.0,0.0,0.0,0.0,0.0,0.0,0.0,0.0,0
1718246993997819552,4265,1718246993997761836,raw_gnss,0,0,39.9254867343,116.199888225,64.9053709246,0.0,0.0,0.0,0.0,0.0,0.0,0.0,0.0,0.0,0
1718246994047871534,4266,1718246994047800377,raw_gnss,0,0,39.9254867343,116.199888225,64.9053709246,0.0,0.0,0.0,0.0,0.0,0.0,0.0,0.0,0.0,0
1718246994097959607,4267,1718246994097818837,raw_gnss,0,0,39.9254867343,116.199888225,64.9053709246,0.0,0.0,0.0,0.0,0.0,0.0,0.0,0.0,0.0,0
1718246994147812190,4268,1718246994147757129,raw_gnss,0,0,39.9254877669,116.199887591,64.9083124818,0.0,0.0,0.0,0.0,0.0,0.0,0.0,0.0,0.0,0
1718246994197956903,4269,1718246994197802155,raw_gnss,0,0,39.9254877669,116.199887591,64.9083124818,0.0,0.0,0.0,0.0,0.0,0.0,0.0,0.0,0.0,0
1718246994247821074,4270,1718246994247761167,raw_gnss,0,0,39.9254889256,116.199886884,64.9049530979,0.0,0.0,0.0,0.0,0.0,0.0,0.0,0.0,0.0,0
1718246994297940122,4271,1718246994297788997,raw_gnss,0,0,39.9254900841,116.199886107,64.8993285131,0.0,0.0,0.0,0.0,0.0,0.0,0.0,0.0,0.0,0
1718246994347807312,4272,1718246994347755262,raw_gnss,0,0,39.9254900841,116.199886107,64.8993285131,0.0,0.0,0.0,0.0,0.0,0.0,0.0,0.0,0.0,0
1718246994397839337,4273,1718246994397788210,raw_gnss,0,0,39.9254900841,116.199886107,64.8993285131,0.0,0.0,0.0,0.0,0.0,0.0,0.0,0.0,0.0,0
1718246994447933522,4274,1718246994447776867,raw_gnss,0,0,39.9254911285,116.199885313,64.8967355527,0.0,0.0,0.0,0.0,0.0,0.0,0.0,0.0,0.0,0
1718246994497881988,4275,1718246994497786712,raw_gnss,0,0,39.9254921446,116.19988439,64.8941063695,0.0,0.0,0.0,0.0,0.0,0.0,0.0,0.0,0.0,0
1718246994547959008,4276,1718246994547832873,raw_gnss,0,0,39.9254921446,116.19988439,64.8941063695,0.0,0.0,0.0,0.0,0.0,0.0,0.0,0.0,0.0,0
1718246994597819594,4277,1718246994597760941,raw_gnss,0,0,39.9254921446,116.19988439,64.8941063695,0.0,0.0,0.0,0.0,0.0,0.0,0.0,0.0,0.0,0
1718246994647950493,4278,1718246994647807131,raw_gnss,0,0,39.9254931454,116.199883602,64.889670643,0.0,0.0,0.0,0.0,0.0,0.0,0.0,0.0,0.0,0
1718246994697816518,4279,1718246994697759228,raw_gnss,0,0,39.9254931454,116.199883602,64.889670643,0.0,0.0,0.0,0.0,0.0,0.0,0.0,0.0,0.0,0
1718246994747848072,4280,1718246994747786465,raw_gnss,0,0,39.9254941158,116.199882825,64.8910520282,0.0,0.0,0.0,0.0,0.0,0.0,0.0,0.0,0.0,0
